~Version Information Section
VERS.          2.0                                     : CWLS LOG ASCII Standard
WRAP.          NO                                      : One line per depth step
CREA.          04/05/19                                : LAS Creation Date
~Well Information Section
STRT.ft        269.0000                                : Start Depth
STOP.ft        10060.0000                              : Stop Depth
STEP.ft        0.5000                                  : Step
NULL.          -999.2500                               : Null Value
COMP.          BRITOIL                                 : Company
WELL.          11/30a-9                                : Well
FLD .          BEATRICE                                : Field
LOC .          NORTH SEA                               : Location
LOC1.          6439409.78mN 491059.29mE                : Location (UTM) 
CTRY.          UK                                      : Country
PROV.          UKCS                                    : Province
UWI .          7462                                    : UWI Number
API .          -                                       : API Number
SECT.          -                                       : Section
TOWN.          -                                       : Township
RNGE.          -                                       : Range
PDAT.          MSL                                     : Perm Datum
EPD .ft        0.0                                     : Elevation
LMF .          RKB                                     : Log Measured From
DMF .          RKB                                     : Drill Measured From
APD .ft        102.0                                   : Above Perm Datum
EKB .ft        102.0                                   : Elev-Kelly Bushing
EDF .ft        101.0                                   : Elev-Drill Floor
EGL .ft        -173                                    : Elev-Ground Level (Water Depth)
TDD .ft        10060.00                                : Total Depth (Driller)
TDL .ft        10060.00                                : Total Depth (Logger)
SRVC.          SCHLUMBERGER                            : Service Company
LATI.          58 05 40.910 N                          : Latitude
LONG.          03 09 05.942 W                          : Longitude
DATE.          JUL-SEP-1983                            : Logging Date
PROJ.          UKCS                                    : Project
SET .          COMP WIRE                               : Set
~Curve Information Section
DEPTH.ft                                               : Depth Curve
CALI.in                                                : Density Caliper
DRHO.g/cc                                              : Density correction
DT.us/ft                                               : Delta-T
GR.gAPI                                                : Gamma Ray
ILD.ohmm                                               : Deep Induction Standard Processed Resistivity
NPHI.pu                                                : Neutron Porosity
PEF.b/e                                                : Photo-Electric Factor
RHOB.g/cc                                              : Bulk Density
SGR.gAPI                                               : Spectral Gamma Ray
~ASCII Log Data Section
# ...
 9703.0000        12.6465         0.0441        71.3875        90.5625         4.8887        23.0917         2.6926         2.6555        76.7572     
 9703.5000        12.6464         0.0419        77.7563        87.9357         5.2445        23.9451         2.6836         2.6537        67.6335     
 9704.0000        12.6464         0.0392        78.2720        82.2188         5.6465        25.2771         2.6575         2.6532        59.8536     
 9704.5000        12.6464         0.0411        75.0217        74.3125         5.9824        26.8199         2.6930         2.6573        59.5027     
 9705.0000        12.6463         0.0491        71.5051        65.0156         6.3301        24.5103         2.8414         2.6747        53.6924     
 9705.5000        12.6463         0.0516        68.9572        53.1189         6.7223        13.2562         2.9993         2.6765        47.1702     
 9706.0000        12.6463         0.0515        67.1313        43.7656         7.3359        10.6788         3.1018         2.6650        44.3330     
 9706.5000        12.6462         0.0417        66.6116        41.1875         8.3340        10.1168         3.0457         2.6588        47.8613     
 9707.0000        12.6462         0.0413        66.9416        44.0156         9.1758        10.0748         3.1535         2.6818        56.1903     
 9707.5000        12.6462         0.0498        67.6235        47.3750         9.4648        11.1590         3.3672         2.7109        62.8421     
 9708.0000        12.6486         0.0572        69.2345        51.9269         9.4022        14.5419         3.4313         2.7147        66.1182     
 9708.5000        12.6525         0.0648        72.4121        63.7656         8.9492        21.2900         3.2854         2.7083        67.4024     
 9709.0000        12.6565         0.0681        76.8108        81.1250         8.1406        30.7327         3.1193         2.7034        73.6817     
 9709.5000        12.6604         0.0631        80.9940        95.8125         7.2617        34.7195         2.8924         2.7084        90.5096     
 9710.0000        12.6643         0.0595        84.3776       103.1897         6.4290        34.9293         2.5401         2.6690       105.7723     
 9710.5000        12.7773         0.0643        86.5745       103.4687         5.7402        34.7615         2.6088         2.6233       112.1544     
 9711.0000        12.9578         0.1039        87.7908       103.6250         5.1992        34.4714         2.8958         2.5916       110.6445     
 9711.5000        13.1377         0.1247        88.2966       103.6563         4.7480        33.6748         3.1216         2.5982       108.7715     
 9712.0000        13.2284         0.1442        88.3066       103.9975         4.4436        31.8861         2.9237         2.6177       108.6495     
 9712.5000        13.2874         0.1163        87.7702       102.2813         4.2480        32.5022         2.4197         2.6295       109.5415     
 9713.0000        13.3509         0.0806        86.4807        97.1563         4.1191        33.2776         2.3085         2.6138       108.8318     
 9713.5000        13.4039         0.0537        84.9407        93.7188         4.0430        32.4972         2.2942         2.5918       104.8262     
 9714.0000        13.4183         0.0410        84.2017        91.2500         4.0215        32.5496         2.4376         2.5876        99.1940     
 9714.5000        13.4301         0.0450        84.5847        90.5315         4.0391        33.0260         2.4299         2.5949        96.9306     
 9715.0000        13.4419         0.0491        85.0488        90.4063         4.0781        34.5192         2.3934         2.6007        91.9806     
 9715.5000        13.4443         0.0532        84.8632        89.0625         4.1270        35.8860         2.5730         2.6057        86.4180     
 9716.0000        13.4442         0.0577        84.3495        87.1875         4.1797        36.4074         2.8889         2.6312        86.0903     
 9716.5000        13.4265         0.0537        83.8453        85.3108         4.2344        36.8959         3.1316         2.6557        88.1820     
 9717.0000        13.3321         0.0388        83.6936        83.2188         4.2813        37.0292         3.2050         2.6774        93.4822     
 9717.5000        13.2535         0.0240        83.8580        81.8125         4.3203        36.9227         3.1677         2.6630        96.8853     
 9718.0000        13.1839         0.0114        83.8555        80.0625         4.3652        36.5176         3.1936         2.6424        97.6700     
 9718.5000        13.1183         0.0084        83.2556        81.5267         4.4218        35.1787         2.9348         2.6388        96.9419     
 9719.0000        13.0934         0.0058        81.8266        83.8438         4.4922        32.7518         2.6663         2.6373        94.5498     
 9719.5000        13.0803         0.0027        80.2444        84.5938         4.5762        31.6356         2.5915         2.6350        91.1785     
 9720.0000        13.0671         0.0018        78.9431        82.8438         4.6738        30.6663         2.4888         2.6317        89.1819     
 9720.5000        13.0540         0.0007        78.3694        79.2813         4.7832        29.6738         2.3508         2.6274        86.2514     
 9721.0000        13.0188        -0.0006        78.6658        77.0285         4.9279        28.6006         2.1736         2.6242        86.5696     
 9721.5000        12.9286        -0.0041        79.3109        75.7188         5.0938        27.4659         2.0295         2.6290        87.2917     
 9722.0000        12.8382        -0.0045        78.2951        74.2188         5.3027        24.4583         1.9551         2.6409        88.9823     
 9722.5000        12.7761        -0.0025        77.0847        72.1875         5.5371        21.0165         1.9204         2.6490        88.7799     
 9723.0000        12.7547         0.0008        76.8646        71.4052         5.7697        17.8697         1.9589         2.6476        89.0139     
 9723.5000        12.7332         0.0041        76.8646        73.7500         6.0215        17.4465         2.0933         2.6493        89.1585     
 9724.0000        12.7117         0.0074        72.0449        77.6250         6.2988        17.0961         2.3030         2.6557        84.7302     
 9724.5000        12.7012         0.0108        71.7551        77.2813         6.5918        17.4018         2.5099         2.6600        76.5965     
 9725.0000        12.6958         0.0143        71.7560        73.5353         6.8767        16.9109         2.6528         2.6642        65.4328     
 9725.5000        12.6905         0.0188        66.3613        66.4531         7.1680        15.0171         2.7074         2.6822        58.1983     
 9726.0000        12.6851         0.0324        72.0449        59.7656         7.4707        13.1002         2.7388         2.7112        56.2324     
 9726.5000        12.6797         0.0502        73.0585        55.7031         7.8184         9.8026         2.7109         2.7467        57.1869     
 9727.0000        12.6743         0.0614        73.0585        52.2344         8.2188         6.6012         2.5806         2.7460        58.8980     
 9727.5000        12.6689         0.0580        73.0627        49.8737         8.5823         6.0140         2.3788         2.7342        61.2667     
 9728.0000        12.6618         0.0546        74.3647        49.7188         8.8516         6.0143         2.3148         2.7108        62.2575     
 9728.5000        12.6501         0.0572        68.2813        54.4688         9.0000         6.0146         2.4282         2.6998        62.3724     
 9729.0000        12.6383         0.0628        68.2813        61.5313         9.0156         6.0149         2.6732         2.6975        62.2447     
