~Version Information Section
VERS.          2.0                                     : CWLS LOG ASCII Standard
WRAP.          NO                                      : One line per depth step
CREA.          05/10/19                                : LAS Creation Date
~Well Information Section
STRT.ft        839.0000                                : Start Depth
STOP.ft        7387.0000                               : Stop Depth
STEP.ft        0.5000                                  : Step
NULL.          -999.5000                               : Null Value
COMP.          MESA PETROLEUM U.K. LTD.                : Company
WELL.          11/30-2                                 : Well
FLD .          EXPLORATION                             : Field
LOC .          NORTH SEA                               : Location
LOC1.          -                                       : Location (UTM)
CTRY.          UK                                      : Country
PROV.          UKCS                                    : Province
UWI .          799                                     : UWI Number
API .          -                                       : API Number
SECT.          -                                       : Section
TOWN.          -                                       : Township
RNGE.          -                                       : Range
PDAT.          MSL                                     : Perm Datum
EPD .ft        0.0                                     : Elevation
LMF .          KB                                      : Log Measured From
DMF .          KB                                      : Drill Measured From
APD .ft        113.0                                   : Above Perm Datum
EKB .ft        112.0                                   : Elev-Kelly Bushing
EDF .ft        111.0                                   : Elev-Drill Floor
EGL .ft        -158.0                                  : Elev-Ground Level (Water Depth)
TDD .ft        7407.0                                  : Total Depth (Driller)
TDL .ft        7388.00                                 : Total Depth (Logger)
SRVC.          SCHLUMBERGER                            : Service Company
LATI.          58 06 30.0 N                            : Latitude
LONG.          03 06 02.0 W                            : Longitude
DATE.          NOV-DEC-1976                            : Logging Date
PROJ.          UKCS                                    : Project
SET .          COMP_WIRE                               : Set
~Curve Information Section
DEPTH.ft                                                  : Depth Curve
CALI.in                                                : Caliper BHC-FDC
CALS.in                                                : Caliper DLL
DRHO.g/cc                                              : Delta Rho
DT.us/ft                                               : Delta-T
GR.gAPI                                                : Gamma Ray ISF
GRD.gAPI                                               : Gamma Ray FDC
GRL.gAPI                                               : Gamma Ray DLL
ILD.Ohmm                                               : Deep Induction Standard Processed Resistivity
LLD.Ohmm                                               : Latero-Log Deep (Resistivity)
LLS.Ohmm                                               : Latero-Log Shallow (Resistivity)
MSFL.Ohmm                                              : Msfl Resistivity
NPHI.pu                                                : Neutron Porosity
RHOB.g/cc                                              : Bulk Density
SFLU.Ohmm                                              : SFL Resistivity (Unaveraged)
SP.mV                                                  : Spontaneous Potential ISF
SPL.mV                                                 : Spontaneous Potential  DLL
~ASCII Log Data Section
# ...
 6663.0000         9.1514         8.5874         0.1748        76.4393        68.1902        55.1075        73.8939         7.9394         9.5251         9.0566        11.5793        14.0055         2.5398         7.1329        66.1690        85.9766     
 6663.5000         9.3599         8.6113         0.2100        76.6072        65.2967        51.3515        70.8983         8.3277         9.5916         9.1480        11.9568        14.9743         2.5050         7.2853        66.4244        86.1069     
 6664.0000         9.5126         8.6478         0.2196        76.4649        63.4072        49.8884        68.7572         8.6278         9.0349         8.8246        11.8015        15.7740         2.4542         7.1440        66.7080        86.3774     
 6664.5000         9.8542         8.6843         0.2284        76.0472        69.3858        51.4755        68.5772         8.6272         8.6862         8.6897        11.5296        16.6424         2.4144         6.9580        66.9098        87.0972     
 6665.0000        10.2937         8.7083         0.2128        75.8491        73.2791        55.5419        71.5652         8.1021         8.3062         8.8037        11.2682        17.0575         2.3953         6.7639        67.0103        87.5478     
 6665.5000        10.1581         8.7300         0.2214        77.5365        75.3319        59.4927        76.0916         7.6021         9.0076         9.0155         7.9518        17.0317         2.3916         6.4600        66.9945        87.7735     
 6666.0000        10.0979         8.7858         0.2416        80.2427        76.4301        61.1193        79.6273         7.2323         9.5016         9.2140         2.6195        19.1626         2.3445         5.9879        66.9462        87.8631     
 6666.5000        11.0499         8.8667         0.2614        82.9490        77.1264        61.3254        80.7052         7.1953         9.3299         9.3244         1.2282        23.4724         2.2916         5.4545        67.0717        88.0533     
 6667.0000        11.8034         8.9165         0.2640        84.0356        79.9664        62.5580        80.8689         7.1121         8.4498         8.6600         1.3651        24.8542         2.2669         5.0347        67.1894        88.3725     
 6667.5000        12.3237         8.9379         0.2195        83.8560        82.8113        63.7194        82.4154         6.9559         7.2411         6.5980         1.7444        24.1087         2.2684         4.9419        67.2483        88.4687     
 6668.0000        12.7602         8.9390         0.1968        82.5071        85.3156        64.1388        82.8268         6.7048         6.0949         6.1350         3.5716        23.4797         2.2512         5.1102        67.3094        88.2412     
 6668.5000        12.3414         8.9531         0.1893        80.6942        86.0438        65.0567        81.3609         6.3230         5.8527         5.9717         5.8762        22.8502         2.2498         5.1944        67.3176        88.4492     
 6669.0000        12.4678         9.0254         0.2155        79.1317        85.8979        64.7653        80.0308         6.0156         6.7757         6.5095         9.5177        25.1866         2.2520         5.1785        67.3176        88.6101     
 6669.5000        13.1060         9.3091         0.2263        78.6380        86.4289        64.2848        79.2371         6.0383         7.0120         6.9623         7.4482        30.4792         2.1919         5.0495        67.2762        88.4050     
 6670.0000        13.2259         9.5703         0.1694        78.2575        85.6631        63.8355        77.5989         6.2602         7.0050         6.8789         3.6236        33.2237         2.1301         4.8565        67.1764        88.3259     
 6670.5000        12.6022         9.6431         0.1921        79.0627        81.7660        62.8689        74.5729         6.5808         6.7269         6.4082         3.1929        33.1915         2.1715         4.6961        67.0583        88.6107     
 6671.0000        10.8052         9.4009         0.2411        80.0378        80.0288        61.6157        74.8228         6.8575         6.2638         6.0701         2.8023        32.0551         2.2138         4.7648        66.9709        88.6389     
 6671.5000        10.1726         9.2325         0.2482        80.2714        81.1098        63.8765        78.4971         7.0143         6.0707         5.8595         1.4690        30.8088         2.2047         4.8663        66.9973        88.2467     
 6672.0000        10.6895         9.1161         0.2146        78.8432        81.6619        65.9286        81.7860         7.0721         5.9517         5.7932         0.9707        28.0155         2.1767         5.1030        67.1701        87.7857     
 6672.5000        11.5016         9.0434         0.1970        77.0956        78.9578        66.8061        81.5146         7.0469         6.5008         6.2563         1.0502        22.7052         2.1851         5.4648        67.3857        87.7853     
 6673.0000        10.5164         9.0220         0.2253        75.4857        76.2401        65.8980        77.8860         6.9758         7.9505         8.1430         3.4827        17.6952         2.1980         6.1049        67.5086        87.8752     
 6673.5000        10.9795         9.0498         0.2581        75.1447        72.8790        61.6912        72.3351         6.9527         8.8036         8.9382         5.8504        21.9189         2.1583         6.7949        67.4612        87.5096     
 6674.0000        11.5082         9.0981         0.2517        75.5980        69.9442        55.1902        68.9751         6.9236         7.8101         8.4180         3.2007        31.3442         2.1158         6.5720        67.2906        87.3853     
 6674.5000        12.1257         9.1591         0.2217        77.4647        67.1880        50.5727        68.0898         6.7718         7.1985         7.8358         0.8970        31.4364         2.1611         6.0575        67.1926        87.5279     
 6675.0000        11.9598         9.2284         0.2252        78.8471        69.5941        52.3691        72.1858         6.5074         7.0009         7.2776         0.9904        27.0115         2.2647         5.8265        67.1926        87.7373     
 6675.5000        12.9717         9.4354         0.2524        80.3082        75.6344        59.0386        77.5218         6.1952         6.8080         6.9886         3.7020        27.7567         2.2293         5.7678        67.1926        87.9249     
 6676.0000        13.4119         9.7446         0.2265        81.7573        80.9155        63.3131        78.9166         5.9537         6.5603         6.7551         3.2424        33.0807         2.1663         5.2924        67.2557        87.8353     
 6676.5000        13.6764         9.9966         0.1812        82.6557        82.6024        64.9363        78.1170         5.8959         5.9157         6.2538         1.2399        34.4144         2.1805         4.6033        67.3805        87.8000     
 6677.0000        13.0151         9.6963         0.1580        81.3683        84.3347        64.7131        75.0663         6.0921         5.4474         5.5216         1.2588        33.1778         2.2159         4.2717        67.4393        87.7335     
 6677.5000        11.3009         9.0520         0.1408        78.4094        83.4842        63.8343        77.2382         6.2449         5.3187         5.2573         1.6482        29.4218         2.2547         4.3295        67.3734        87.7492     
 6678.0000        11.1345         8.8121         0.1857        76.2518        82.0412        63.4946        81.3886         6.1584         6.2976         6.1674         5.3054        24.1289         2.3301         4.4503        67.2462        87.7883     
 6678.5000        10.6491         8.8352         0.2146        75.4773        86.0594        64.2182        83.9822         6.0905         7.7350         7.5608         7.4079        22.6895         2.3114         4.8872        67.1190        87.7971     
