~Version Information Section
VERS.          2.0                                     : CWLS LOG ASCII Standard
WRAP.          NO                                      : One line per depth step
CREA.          04/05/19                                : LAS Creation Date
~Well Information Section
STRT.ft        269.0000                                : Start Depth
STOP.ft        10060.0000                              : Stop Depth
STEP.ft        0.5000                                  : Step
NULL.          -999.2500                               : Null Value
COMP.          BRITOIL                                 : Company
WELL.          11/30a-9                                : Well
FLD .          BEATRICE                                : Field
LOC .          NORTH SEA                               : Location
LOC1.          6439409.78mN 491059.29mE                : Location (UTM) 
CTRY.          UK                                      : Country
PROV.          UKCS                                    : Province
UWI .          7462                                    : UWI Number
API .          -                                       : API Number
SECT.          -                                       : Section
TOWN.          -                                       : Township
RNGE.          -                                       : Range
PDAT.          MSL                                     : Perm Datum
EPD .ft        0.0                                     : Elevation
LMF .          RKB                                     : Log Measured From
DMF .          RKB                                     : Drill Measured From
APD .ft        102.0                                   : Above Perm Datum
EKB .ft        102.0                                   : Elev-Kelly Bushing
EDF .ft        101.0                                   : Elev-Drill Floor
EGL .ft        -173                                    : Elev-Ground Level (Water Depth)
TDD .ft        10060.00                                : Total Depth (Driller)
TDL .ft        10060.00                                : Total Depth (Logger)
SRVC.          SCHLUMBERGER                            : Service Company
LATI.          58 05 40.910 N                          : Latitude
LONG.          03 09 05.942 W                          : Longitude
DATE.          JUL-SEP-1983                            : Logging Date
PROJ.          UKCS                                    : Project
SET .          COMP WIRE                               : Set
~Curve Information Section
DEPTH.ft                                               : Depth Curve
CALI.in                                                : Density Caliper
DRHO.g/cc                                              : Density correction
DT.us/ft                                               : Delta-T
GR.gAPI                                                : Gamma Ray
ILD.ohmm                                               : Deep Induction Standard Processed Resistivity
NPHI.pu                                                : Neutron Porosity
PEF.b/e                                                : Photo-Electric Factor
RHOB.g/cc                                              : Bulk Density
SGR.gAPI                                               : Spectral Gamma Ray
~ASCII Log Data Section
# ...
 9782.5000        13.0606         0.0844        79.8787        87.1563         5.2539        34.8467         2.3218         2.6178        95.7779     
 9783.0000        13.0400         0.0449        79.7382        91.7500         5.1660        35.4068         2.3984         2.5888        96.3927     
 9783.5000        13.0101         0.0201        79.7382        97.5583         5.1406        34.6990         2.4589         2.5812        96.5516     
 9784.0000        12.9802         0.0117        79.7324       101.4063         5.1875        33.8389         2.5003         2.5838        96.6337     
 9784.5000        12.9344         0.0089        71.9834        98.6875         5.3047        32.0765         2.4655         2.5798        99.4928     
 9785.0000        12.8616         0.0095        71.9834        88.6250         5.4219        30.1681         2.3428         2.5756       103.7516     
 9785.5000        12.8702         0.0088        74.7552        77.7188         5.5137        25.3675         2.2088         2.5743       105.1562     
 9786.0000        12.8794         0.0062        74.9824        72.0611         5.6447        22.4241         2.1454         2.5822       105.9617     
 9786.5000        12.8397         0.0067        74.4502        71.8750         5.8242        20.6090         2.2437         2.6188        98.7399     
 9787.0000        12.7906         0.0110        73.8701        71.8438         6.0410        18.8896         2.3793         2.6408        93.1159     
 9787.5000        12.7434         0.0138        72.9724        67.9063         6.3574        16.8671         2.4343         2.6620        82.9461     
 9788.0000        12.7453         0.0146        70.7781        61.7453         6.8188        14.7489         2.3807         2.6767        69.8844     
 9788.5000        12.7499         0.0169        68.2407        56.0625         7.3945        13.2252         2.3636         2.7007        69.1714     
 9789.0000        12.7544         0.0228        67.0991        55.2656         7.9180        12.0319         2.4508         2.7343        75.5442     
 9789.5000        12.7590         0.0281        68.0279        60.1406         8.2422        11.1526         2.6416         2.7579        83.5233     
 9790.0000        12.7635         0.0262        70.1943        70.9375         8.3945        11.4847         3.0640         2.7736        89.1561     
 9790.5000        12.7681         0.0197        72.5710        82.2555         8.4375        13.7643         3.7022         2.7829        93.4646     
 9791.0000        12.7727         0.0148        74.3038        86.8750         8.4297        16.5034         3.8751         2.7953        97.6058     
 9791.5000        12.7772         0.0177        74.8193        85.7813         8.3750        20.2262         2.9098         2.7965        99.9055     
 9792.0000        12.7818         0.0298        74.4223        83.2813         8.0938        24.0002         2.3063         2.7512        98.1966     
 9792.5000        12.7863         0.0367        73.8925        85.3474         7.5581        25.9116         1.9426         2.7029        94.5414     
 9793.0000        12.7909         0.0465        73.7009        85.4063         7.0820        24.9915         1.9538         2.6517        91.2957     
 9793.5000        12.7955         0.0526        73.7051        81.5313         6.8320        23.8842         1.9534         2.6528        87.2632     
 9794.0000        12.7996         0.0469        73.7892        76.5000         6.7344        22.9207         2.0092         2.6356        84.4125     
 9794.5000        12.7988         0.0367        74.2471        72.8442         6.7207        23.6309         2.1327         2.6255        80.9351     
 9795.0000        12.7970         0.0253        74.9152        72.4063         6.7637        24.3554         2.2370         2.6185        79.3099     
 9795.5000        12.7953         0.0169        75.0650        75.2188         6.9004        24.2736         2.2511         2.6164        76.5178     
 9796.0000        12.7936         0.0105        74.2627        75.8750         7.1172        24.2073         2.2124         2.6197        73.9358     
 9796.5000        12.7918         0.0058        72.7778        68.2656         7.3184        25.6820         2.2938         2.6257        69.7393     
 9797.0000        12.7901         0.0032        71.5103        60.1674         7.4336        27.1802         2.4812         2.6292        67.5022     
 9797.5000        12.7883         0.0107        71.6647        62.0000         7.3809        27.6577         2.5516         2.6343        66.9871     
 9798.0000        12.7866         0.0403        73.3306        76.5625         7.2520        27.4642         2.7548         2.6572        73.8893     
 9798.5000        12.7849         0.0670        75.4543        90.8438         7.2461        25.7530         3.0335         2.6779        86.0093     
 9799.0000        12.7831         0.0584        77.5483        98.0984         7.2871        22.1168         3.2720         2.6932        98.8550     
 9799.5000        12.7814         0.0480        79.3783        99.2500         7.1055        21.9194         2.9924         2.6960       106.3142     
 9800.0000        12.7912         0.0443        80.6148        97.0625         6.6055        23.0221         2.7309         2.6905       108.1535     
 9800.5000        12.8483         0.0502        81.5158        94.1875         5.9043        27.5646         2.5982         2.6659       106.4376     
 9801.0000        12.9054         0.0722        82.5096        90.4084         5.2582        29.0766         2.5932         2.6252       101.8587     
 9801.5000        12.9632         0.1081        83.3313        85.6875         4.8496        30.4474         2.6010         2.5896        97.4474     
 9802.0000        13.0719         0.1411        83.2805        80.0625         4.6855        32.3557         2.7337         2.5849        93.0571     
 9802.5000        13.2000         0.1358        82.7487        76.4063         4.6367        33.8597         3.0382         2.5863        91.7125     
 9803.0000        13.3057         0.1180        82.3558        77.8750         4.5645        33.3013         3.5072         2.5977        93.4161     
 9803.5000        13.3695         0.0983        82.2204        84.9755         4.4863        36.0242         3.7145         2.5952        96.3241     
 9804.0000        13.4118         0.0631        82.5733        90.2813         4.4414        36.7758         3.5207         2.5819        97.5226     
 9804.5000        13.4516         0.0412        82.9194        89.9375         4.4238        37.4036         3.3428         2.5860        95.4571     
 9805.0000        13.4547         0.0501        83.1231        85.1250         4.4063        35.4492         3.2970         2.6064        95.3789     
 9805.5000        13.4473         0.0727        83.7969        84.1288         4.3867        31.9756         3.4608         2.6329        98.8775     
 9806.0000        13.4187         0.0654        84.4929        89.5625         4.3945        30.4690         3.6580         2.6677       103.5353     
 9806.5000        13.2843         0.0387        84.5445        95.2188         4.4512        31.4233         3.7720         2.6795       105.1642     
 9807.0000        13.1499         0.0276        83.6810        97.7813         4.5547        32.3788         3.9283         2.6593       104.3433     
 9807.5000        13.0059         0.0210        80.9698        95.6908         4.7049        34.1998         3.9962         2.6016       103.9205     
 9808.0000        12.8166         0.0163        76.8458        89.6875         4.9453        37.3870         3.6813         2.6085       103.1305     
 9808.5000        12.6392         0.0179        72.9770        76.7188         5.3398        39.7540         3.1063         2.6063        90.8760     
