~Version Information Section
VERS.          2.0                                     : CWLS LOG ASCII Standard
WRAP.          NO                                      : One line per depth step
CREA.          04/05/19                                : LAS Creation Date
~Well Information Section
STRT.ft        269.0000                                : Start Depth
STOP.ft        10060.0000                              : Stop Depth
STEP.ft        0.5000                                  : Step
NULL.          -999.2500                               : Null Value
COMP.          BRITOIL                                 : Company
WELL.          11/30a-9                                : Well
FLD .          BEATRICE                                : Field
LOC .          NORTH SEA                               : Location
LOC1.          6439409.78mN 491059.29mE                : Location (UTM) 
CTRY.          UK                                      : Country
PROV.          UKCS                                    : Province
UWI .          7462                                    : UWI Number
API .          -                                       : API Number
SECT.          -                                       : Section
TOWN.          -                                       : Township
RNGE.          -                                       : Range
PDAT.          MSL                                     : Perm Datum
EPD .ft        0.0                                     : Elevation
LMF .          RKB                                     : Log Measured From
DMF .          RKB                                     : Drill Measured From
APD .ft        102.0                                   : Above Perm Datum
EKB .ft        102.0                                   : Elev-Kelly Bushing
EDF .ft        101.0                                   : Elev-Drill Floor
EGL .ft        -173                                    : Elev-Ground Level (Water Depth)
TDD .ft        10060.00                                : Total Depth (Driller)
TDL .ft        10060.00                                : Total Depth (Logger)
SRVC.          SCHLUMBERGER                            : Service Company
LATI.          58 05 40.910 N                          : Latitude
LONG.          03 09 05.942 W                          : Longitude
DATE.          JUL-SEP-1983                            : Logging Date
PROJ.          UKCS                                    : Project
SET .          COMP WIRE                               : Set
~Curve Information Section
DEPTH.ft                                               : Depth Curve
CALI.in                                                : Density Caliper
DRHO.g/cc                                              : Density correction
DT.us/ft                                               : Delta-T
GR.gAPI                                                : Gamma Ray
ILD.ohmm                                               : Deep Induction Standard Processed Resistivity
NPHI.pu                                                : Neutron Porosity
PEF.b/e                                                : Photo-Electric Factor
RHOB.g/cc                                              : Bulk Density
SGR.gAPI                                               : Spectral Gamma Ray
~ASCII Log Data Section
# ...
 9544.0000        12.7117         0.0430        69.6234        77.8750         7.1582        17.4634         2.2786         2.6974        96.4264     
 9544.5000        12.7114         0.0431        70.1169        78.2188         7.2188        17.2502         2.2951         2.6963        98.4121     
 9545.0000        12.7112         0.0450        70.9536        78.4355         7.2911        16.8910         2.3632         2.6989        96.4774     
 9545.5000        12.7110         0.0518        71.6295        73.0938         7.4492        18.3321         2.2458         2.7100        90.4282     
 9546.0000        12.7108         0.0566        71.4424        59.3906         7.6699        17.1696         1.9957         2.7098        81.9084     
 9546.5000        12.7106         0.0535        70.7888        42.7188         7.7930        15.9441         1.9374         2.6331        75.5417     
 9547.0000        12.7104         0.0508        70.6385        32.3724         7.8769        16.3917         1.9336         2.5674        70.8974     
 9547.5000        12.7102         0.0730        71.5687        29.9297         8.0508        19.4393         2.0067         2.5641        70.1190     
 9548.0000        12.7100         0.1288        74.5478        34.3750         8.1055        26.9755         2.1903         2.6015        69.1388     
 9548.5000        12.7102         0.2013        77.7630        43.3750         7.8613        33.2183         3.0490         2.6333        57.7330     
 9549.0000        12.7105         0.2596        78.2969        52.4688         7.5918        37.8404         3.7567         2.6077        59.3251     
 9549.5000        12.7888         0.2779        78.8347        58.4411         7.4335        40.7053         3.6156         2.5519        63.6587     
 9550.0000        13.5514         0.2449        81.8938        63.5156         7.2344        41.8975         2.7217         2.4827        79.5809     
 9550.5000        14.0743         0.1542        85.8743        68.5000         6.7109        44.2714         2.1866         2.5000        86.8391     
 9551.0000        13.9719         0.0830        87.0557        71.7188         5.9414        45.2361         1.9974         2.5697        86.6627     
 9551.5000        13.7188         0.0386        85.3507        72.3118         5.4529        44.0991         1.9971         2.6086        84.4946     
 9552.0000        13.6115         0.0152        83.7976        72.5938         5.3145        42.4866         2.0932         2.6051        82.0000     
 9552.5000        13.5398        -0.0005        82.1945        74.3438         5.2559        41.2238         2.1801         2.6086        79.5416     
 9553.0000        13.4860         0.0031        79.7784        75.0000         5.2168        41.6237         2.2085         2.6171        80.7928     
 9553.5000        13.3910         0.0073        77.7953        76.4346         5.1953        41.3790         2.1496         2.6263        82.7857     
 9554.0000        13.2491         0.0109        76.2529        78.1250         5.1855        38.2915         2.0906         2.6349        83.5397     
 9554.5000        12.9971         0.0117        74.5611        78.4688         5.3184        32.8214         2.0328         2.6417        83.1540     
 9555.0000        12.9335         0.0124        72.8391        75.5625         5.6113        27.3335         1.9893         2.6412        85.3451     
 9555.5000        12.9338         0.0132        71.4322        72.1563         5.8047        22.3348         1.9724         2.6396        92.6493     
 9556.0000        12.9341         0.0140        70.5123        74.0656         5.7968        17.4963         1.9766         2.6377       102.1777     
 9556.5000        12.9343         0.0132        70.0357        77.2188         5.7227        15.7847         2.0214         2.6401       107.7139     
 9557.0000        12.9346         0.0113        70.3860        81.2188         5.6816        16.3411         2.1108         2.6456       108.4931     
 9557.5000        12.9348         0.0150        72.0210        86.8125         5.6836        18.8971         2.2924         2.6497       107.2578     
 9558.0000        12.9351         0.0179        74.9802        94.0696         5.6895        22.3379         2.3089         2.6565       106.8995     
 9558.5000        12.9353         0.0192        77.9152        99.0313         5.6758        25.1808         2.2680         2.6620       110.6821     
 9559.0000        12.9356         0.0206        79.4775        99.4688         5.6348        27.1706         2.2623         2.6665       113.3076     
 9559.5000        12.9359         0.0239        79.6865        96.4375         5.5977        27.4782         2.3178         2.6672       113.9581     
 9560.0000        12.9361         0.0197        78.7451        91.4720         5.6269        27.1992         2.3926         2.6669       113.1322     
 9560.5000        12.9364         0.0139        77.0515        84.5625         5.7363        27.2261         2.4072         2.6609       111.2834     
 9561.0000        12.9366         0.0087        74.9546        77.5625         5.8359        25.7175         2.1163         2.6585       109.6958     
 9561.5000        12.9369         0.0044        72.8883        71.8438         5.8926        22.7610         1.9606         2.6476       108.7231     
 9562.0000        12.9371         0.0040        71.5424        64.1719         5.9668        18.6506         1.9652         2.6244       105.2954     
 9562.5000        12.8588         0.0083        70.9621        55.4770         6.0411        16.3897         2.0129         2.5975        91.4010     
 9563.0000        12.7178         0.0144        71.2655        47.8594         6.0781        15.2191         2.1475         2.5716        69.8503     
 9563.5000        12.7180         0.0191        72.1861        44.1250         6.0195        15.0926         2.2627         2.5550        52.3847     
 9564.0000        12.7183         0.0170        73.0897        43.5000         5.8242        14.8728         2.2440         2.5418        45.4067     
 9564.5000        12.7110         0.0138        73.9467        43.7503         5.5662        14.7117         2.1983         2.5285        44.8373     
 9565.0000        12.6921         0.0146        74.6956        44.2656         5.3770        15.0969         2.1541         2.5209        45.1604     
 9565.5000        12.6591         0.0172        74.7928        45.7188         5.2695        15.0257         2.1246         2.5241        45.8964     
 9566.0000        12.6794         0.0241        74.1723        46.1875         5.1602        14.5897         2.1011         2.5355        49.3790     
 9566.5000        12.6796         0.0322        73.4073        44.9229         5.0255        14.4198         2.0959         2.5457        52.6278     
 9567.0000        12.6330         0.0316        73.0515        41.7969         4.9004        15.0297         2.1201         2.5290        53.8256     
 9567.5000        12.5750         0.0253        73.5598        38.3750         4.8340        14.8552         2.1944         2.5182        48.4994     
 9568.0000        12.4857         0.0233        74.7218        36.6094         4.7285        14.4023         2.2215         2.5274        46.4193     
 9568.5000        12.4192         0.0325        75.4550        35.9531         4.5313        14.2884         2.2279         2.5622        45.8632     
 9569.0000        12.3610         0.0576        75.0762        34.6852         4.3788        14.1522         2.2613         2.5945        45.4080     
 9569.5000        12.3415         0.0636        74.0281        32.8750         4.3242        14.0129         2.3191         2.6015        44.4100     
 9570.0000        12.3222         0.0545        72.9971        33.9375         4.3105        13.7331         2.5103         2.5880        41.7150     
