~Version Information Section
VERS.          2.0                                     : CWLS LOG ASCII Standard
WRAP.          NO                                      : One line per depth step
CREA.          05/10/19                                : LAS Creation Date
~Well Information Section
STRT.ft        839.0000                                : Start Depth
STOP.ft        7387.0000                               : Stop Depth
STEP.ft        0.5000                                  : Step
NULL.          -999.5000                               : Null Value
COMP.          MESA PETROLEUM U.K. LTD.                : Company
WELL.          11/30-2                                 : Well
FLD .          EXPLORATION                             : Field
LOC .          NORTH SEA                               : Location
LOC1.          -                                       : Location (UTM)
CTRY.          UK                                      : Country
PROV.          UKCS                                    : Province
UWI .          799                                     : UWI Number
API .          -                                       : API Number
SECT.          -                                       : Section
TOWN.          -                                       : Township
RNGE.          -                                       : Range
PDAT.          MSL                                     : Perm Datum
EPD .ft        0.0                                     : Elevation
LMF .          KB                                      : Log Measured From
DMF .          KB                                      : Drill Measured From
APD .ft        113.0                                   : Above Perm Datum
EKB .ft        112.0                                   : Elev-Kelly Bushing
EDF .ft        111.0                                   : Elev-Drill Floor
EGL .ft        -158.0                                  : Elev-Ground Level (Water Depth)
TDD .ft        7407.0                                  : Total Depth (Driller)
TDL .ft        7388.00                                 : Total Depth (Logger)
SRVC.          SCHLUMBERGER                            : Service Company
LATI.          58 06 30.0 N                            : Latitude
LONG.          03 06 02.0 W                            : Longitude
DATE.          NOV-DEC-1976                            : Logging Date
PROJ.          UKCS                                    : Project
SET .          COMP_WIRE                               : Set
~Curve Information Section
DEPTH.ft                                                  : Depth Curve
CALI.in                                                : Caliper BHC-FDC
CALS.in                                                : Caliper DLL
DRHO.g/cc                                              : Delta Rho
DT.us/ft                                               : Delta-T
GR.gAPI                                                : Gamma Ray ISF
GRD.gAPI                                               : Gamma Ray FDC
GRL.gAPI                                               : Gamma Ray DLL
ILD.Ohmm                                               : Deep Induction Standard Processed Resistivity
LLD.Ohmm                                               : Latero-Log Deep (Resistivity)
LLS.Ohmm                                               : Latero-Log Shallow (Resistivity)
MSFL.Ohmm                                              : Msfl Resistivity
NPHI.pu                                                : Neutron Porosity
RHOB.g/cc                                              : Bulk Density
SFLU.Ohmm                                              : SFL Resistivity (Unaveraged)
SP.mV                                                  : Spontaneous Potential ISF
SPL.mV                                                 : Spontaneous Potential  DLL
~ASCII Log Data Section
# ...
 6743.0000         8.8982         8.8466         0.1791        76.6677        69.3773        54.5254        68.7288         7.0085        12.6409        12.4163        11.6862        24.9853         2.2604         7.7661        66.1917        87.0322     
 6743.5000        10.1600         9.0873         0.2449        82.3271        78.3704        59.6330        75.2831         6.0998         9.5847         9.7427         7.0970        33.5922         2.1418         6.1826        66.1917        87.4762     
 6744.0000        11.3267         9.3765         0.2394        87.6864        85.9359        63.1260        79.9142         5.7389         7.7660         7.2298         2.0242        40.4709         2.0926         5.1259        66.2205        87.9872     
 6744.5000        11.8509         9.4552         0.2138        91.3969        89.9990        66.9299        84.9880         5.5968         6.1061         5.4956         0.9913        42.8168         2.0740         4.5307        66.3157        88.1502     
 6745.0000        11.7743         9.3574         0.1707        92.4427        91.8526        69.5929        87.0949         5.4566         4.4890         4.3579         1.2662        41.7222         2.1054         4.3471        66.4789        88.0156     
 6745.5000        11.1752         9.1355         0.1345        91.1977        86.1786        68.1463        86.4334         5.3191         4.5052         4.7604         2.4579        36.3229         2.2290         4.3693        66.6349        87.6009     
 6746.0000        11.2102         9.0251         0.1820        87.9572        82.5207        64.8040        81.2909         5.2097         5.1026         5.3481         7.2219        30.4393         2.3812         4.5410        66.7307        87.5961     
 6746.5000        11.1898         9.0890         0.2541        83.6659        80.7190        62.4085        78.3332         5.2111         5.7771         6.0701        10.0079        27.1823         2.4193         4.9648        66.8337        87.5848     
 6747.0000        10.8202         9.1482         0.2632        80.3644        82.2006        62.8187        79.1169         5.4266         6.6963         7.3088         8.4876        26.0739         2.3767         5.5741        66.9193        87.2183     
 6747.5000        10.5066         9.1991         0.2531        79.0923        85.0651        65.2652        80.5181         6.2803         8.0714         8.1088         5.4919        26.6689         2.3667         6.1205        66.8489        86.9757     
 6748.0000        10.4104         9.2216         0.2469        80.0599        85.8615        68.3019        82.1910         7.1353         7.2611         7.2645         4.8871        28.5711         2.4036         6.5039        66.5811        86.4522     
 6748.5000        10.8085         9.2211         0.2542        81.2513        84.9204        68.5670        84.0707         7.8240         6.4657         6.8045         4.2880        30.7427         2.3757         6.7512        66.2103        86.7803     
 6749.0000        10.5594         9.2093         0.2101        80.8700        86.8214        65.9066        82.5934         8.3475         6.7294         7.5133         2.3263        30.6011         2.2978         6.9963        65.9302        86.2691     
 6749.5000         9.8243         9.1534         0.0998        79.5283        87.2700        63.0833        76.1871         8.7692         7.3495         8.6127         3.7786        27.3771         2.2937         7.1423        65.7720        85.2403     
 6750.0000         9.6287         9.0265         0.0344        78.1948        84.2757        60.7454        71.5568         9.0161         8.7907        10.1225         9.0630        23.9956         2.3723         7.8185        65.5824        84.3119     
 6750.5000         9.6981         8.9385         0.0627        78.1294        80.3941        58.2312        67.0084         9.3246        10.3011        11.9800        10.7534        22.7043         2.4471         8.7297        65.3333        83.3384     
 6751.0000         9.5823         8.8420         0.0993        78.7486        75.2249        54.6547        62.3859         9.9159        11.7071        13.5678        11.4684        22.1915         2.4549         9.2493        64.9438        82.5587     
 6751.5000         9.5796         8.7335         0.1383        79.0448        66.8013        48.4603        56.6724        11.3328        13.0580        14.3925        12.7274        19.9616         2.4485         9.7689        64.2324        81.7784     
 6752.0000         9.7210         8.6184         0.1628        78.4533        56.8701        40.8367        47.1529        13.1478        14.3235        15.4457        13.0404        17.8982         2.4381        10.4128        63.4756        81.1538     
 6752.5000         9.6707         8.5036         0.1407        77.0254        45.0970        31.3208        37.8377        14.9599        16.2805        16.8380        13.3359        17.4690         2.4195        11.6461        62.9665        80.5499     
 6753.0000         9.2446         8.3546         0.0788        75.3606        34.8459        24.1036        33.6595        16.3784        18.8424        18.3460        15.8810        17.6760         2.4030        12.7212        62.6655        80.1805     
 6753.5000         8.8308         8.3336         0.0633        74.2079        30.3161        21.6850        34.3202        17.3957        21.2274        20.3808        21.1514        16.5249         2.4114        13.6383        62.5667        80.3772     
 6754.0000         8.5356         8.3331         0.0704        73.7166        30.4724        20.9507        32.8150        18.6265        22.4193        21.7795        25.6198        14.6379         2.4064        14.5605        62.5903        80.7111     
 6754.5000         8.5004         8.3327         0.0574        73.7491        30.3386        19.4811        28.2556        19.6591        23.3961        21.9159        24.8929        13.2976         2.3865        14.8236        62.6557        80.1055     
 6755.0000         8.5004         8.3322         0.0549        74.1030        27.8654        17.5647        23.0041        20.4178        23.5665        21.5621        21.9233        12.9791         2.3738        14.7405        62.6917        80.0978     
 6755.5000         8.5004         8.3317         0.0493        74.6822        25.7771        17.2861        21.4955        20.8430        23.3551        20.9251        21.2114        13.1775         2.3715        14.4745        62.6504        80.2279     
 6756.0000         8.5004         8.3312         0.0501        75.4336        24.2378        19.4741        23.0225        20.9205        22.4814        19.9035        21.1994        13.3898         2.3780        14.2065        62.5893        80.8447     
 6756.5000         8.5119         8.3660         0.0528        76.2636        26.3014        23.7210        25.4736        18.9187        21.2203        19.1300        20.0332        13.5265         2.3773        13.9150        62.6727        81.1106     
 6757.0000         8.5472         8.4259         0.0726        76.8385        29.6642        29.7467        33.1087        16.2908        19.9625        18.7253        17.6611        14.3553         2.3822        13.4420        62.6875        81.6960     
 6757.5000         8.5504         8.4984         0.0944        76.4795        34.2190        37.8732        45.7840        13.6597        19.3857        17.3633        17.0404        16.0718         2.3886        12.6620        63.0440        82.4523     
 6758.0000         8.5629         8.5842         0.1056        75.7662        43.1690        46.5526        62.1310        11.6409        17.2985        14.5900        17.4334        18.2313         2.3908        11.8819        63.4005        83.2966     
 6758.5000         8.6365         8.6894         0.1545        75.4329        53.9597        57.6983        76.7549        10.3252        14.0929        12.0385        14.1075        20.9377         2.3707        11.1006        63.7581        84.1637     
