~Version Information Section
VERS.          2.0                                     : CWLS LOG ASCII Standard
WRAP.          NO                                      : One line per depth step
CREA.          04/05/19                                : LAS Creation Date
~Well Information Section
STRT.ft        269.0000                                : Start Depth
STOP.ft        10060.0000                              : Stop Depth
STEP.ft        0.5000                                  : Step
NULL.          -999.2500                               : Null Value
COMP.          BRITOIL                                 : Company
WELL.          11/30a-9                                : Well
FLD .          BEATRICE                                : Field
LOC .          NORTH SEA                               : Location
LOC1.          6439409.78mN 491059.29mE                : Location (UTM) 
CTRY.          UK                                      : Country
PROV.          UKCS                                    : Province
UWI .          7462                                    : UWI Number
API .          -                                       : API Number
SECT.          -                                       : Section
TOWN.          -                                       : Township
RNGE.          -                                       : Range
PDAT.          MSL                                     : Perm Datum
EPD .ft        0.0                                     : Elevation
LMF .          RKB                                     : Log Measured From
DMF .          RKB                                     : Drill Measured From
APD .ft        102.0                                   : Above Perm Datum
EKB .ft        102.0                                   : Elev-Kelly Bushing
EDF .ft        101.0                                   : Elev-Drill Floor
EGL .ft        -173                                    : Elev-Ground Level (Water Depth)
TDD .ft        10060.00                                : Total Depth (Driller)
TDL .ft        10060.00                                : Total Depth (Logger)
SRVC.          SCHLUMBERGER                            : Service Company
LATI.          58 05 40.910 N                          : Latitude
LONG.          03 09 05.942 W                          : Longitude
DATE.          JUL-SEP-1983                            : Logging Date
PROJ.          UKCS                                    : Project
SET .          COMP WIRE                               : Set
~Curve Information Section
DEPTH.ft                                               : Depth Curve
CALI.in                                                : Density Caliper
DRHO.g/cc                                              : Density correction
DT.us/ft                                               : Delta-T
GR.gAPI                                                : Gamma Ray
ILD.ohmm                                               : Deep Induction Standard Processed Resistivity
NPHI.pu                                                : Neutron Porosity
PEF.b/e                                                : Photo-Electric Factor
RHOB.g/cc                                              : Bulk Density
SGR.gAPI                                               : Spectral Gamma Ray
~ASCII Log Data Section
# ...
 8934.5000      -999.2500      -999.2500        75.3240        83.6563         4.6230      -999.2500      -999.2500      -999.2500      -999.2500     
 8935.0000      -999.2500      -999.2500        75.8955        86.7180         4.5723      -999.2500      -999.2500      -999.2500      -999.2500     
 8935.5000      -999.2500      -999.2500        76.5175        85.0313         4.5430      -999.2500      -999.2500      -999.2500      -999.2500     
 8936.0000      -999.2500      -999.2500        77.0414        79.1563         4.5195      -999.2500      -999.2500      -999.2500      -999.2500     
 8936.5000      -999.2500      -999.2500        77.3151        75.5000         4.4961      -999.2500      -999.2500      -999.2500      -999.2500     
 8937.0000      -999.2500      -999.2500        77.4235        77.2188         4.4512      -999.2500      -999.2500      -999.2500      -999.2500     
 8937.5000      -999.2500      -999.2500        77.5170        80.8782         4.3925      -999.2500      -999.2500      -999.2500      -999.2500     
 8938.0000      -999.2500      -999.2500        77.5465        82.2500         4.3438      -999.2500      -999.2500      -999.2500      -999.2500     
 8938.5000      -999.2500      -999.2500        77.5552        82.0938         4.3203      -999.2500      -999.2500      -999.2500      -999.2500     
 8939.0000      -999.2500      -999.2500        77.6889        82.8438         4.3145      -999.2500      -999.2500      -999.2500      -999.2500     
 8939.5000      -999.2500      -999.2500        77.8679        79.9011         4.3125      -999.2500      -999.2500      -999.2500      -999.2500     
 8940.0000      -999.2500      -999.2500        77.8123        75.3125         4.3125      -999.2500      -999.2500      -999.2500      -999.2500     
 8940.5000      -999.2500      -999.2500        77.5473        73.7813         4.3125      -999.2500      -999.2500      -999.2500      -999.2500     
 8941.0000      -999.2500      -999.2500        77.4685        75.7500         4.3164      -999.2500      -999.2500      -999.2500      -999.2500     
 8941.5000      -999.2500      -999.2500        77.6703        77.9063         4.3184      -999.2500      -999.2500      -999.2500      -999.2500     
 8942.0000      -999.2500      -999.2500        77.9579        76.0908         4.3125      -999.2500      -999.2500      -999.2500      -999.2500     
 8942.5000      -999.2500      -999.2500        78.2616        74.2813         4.3457      -999.2500      -999.2500      -999.2500      -999.2500     
 8943.0000      -999.2500      -999.2500        78.4975        74.3750         4.4316      -999.2500      -999.2500      -999.2500      -999.2500     
 8943.5000      -999.2500         0.0545        78.5480        75.8125         4.4434      -999.2500         2.7036         2.6869        90.9276     
 8944.0000        13.6312         0.0605        78.4632        74.4957         4.4239        19.9768         2.7066         2.6935        93.8022     
 8944.5000        13.6310         0.0564        78.4062        70.0625         4.4414        20.5159         2.8684         2.7001        91.6646     
 8945.0000        13.6307         0.0462        78.4653        68.1875         4.4414        21.2631         3.0103         2.7067        90.0299     
 8945.5000        13.6305         0.0360        78.5164        70.7813         4.4375        22.1504         2.9792         2.6984        90.3635     
 8946.0000        13.6302         0.0258        78.3605        76.6824         4.4316        22.8114         2.8513         2.6856        90.6977     
 8946.5000        13.6299         0.0162        78.2614        79.7188         4.4297        22.8272         2.7830         2.6747        91.2866     
 8947.0000        13.6274         0.0130        78.6689        78.8750         4.4258        22.7588         2.7428         2.6729        91.9558     
 8947.5000        13.6238         0.0132        79.3992        78.1563         4.4219        22.2470         2.7009         2.6772        90.5989     
 8948.0000        13.6203         0.0135        80.0516        77.4688         4.4258        21.1311         2.6548         2.6821        91.1724     
 8948.5000        13.6168         0.0138        80.5206        78.1271         4.4219        21.2278         2.6318         2.6881        90.8774     
 8949.0000        13.6133         0.0146        80.7048        79.0938         4.4023        21.3985         2.8363         2.6899        88.7992     
 8949.5000        13.6103         0.0155        80.6318        79.5000         4.3262        21.7318         2.9645         2.6834        87.0779     
 8950.0000        13.6432         0.0186        80.6108        80.4063         4.1777        21.2699         3.0930         2.6735        88.1503     
 8950.5000        13.6987         0.0249        80.7472        80.8129         4.0644        21.7530         3.0960         2.6723        89.7416     
 8951.0000        13.7274         0.0336        80.8096        81.0000         4.0371        21.2439         2.9835         2.6829        86.5158     
 8951.5000        13.7271         0.0473        80.6568        82.0625         4.0469        20.5143         2.8709         2.7029        87.2350     
 8952.0000        13.7269         0.0628        80.4682        83.4063         4.0605        20.1479         2.7584         2.7082        87.6792     
 8952.5000        13.7266         0.0645        80.3658        84.4362         4.0684        20.5325         2.8331         2.7119        92.5753     
 8953.0000        13.7264         0.0631        80.2657        83.1875         4.0762        21.5014         3.0033         2.7104        91.7561     
 8953.5000        13.7261         0.0528        80.2030        79.3125         4.0820        21.4087         2.9602         2.6999        89.1547     
 8954.0000        13.7259         0.0456        80.1964        76.0625         4.0918        20.5770         2.7965         2.6860        84.3691     
 8954.5000        13.7352         0.0409        80.1743        75.1875         4.1094        19.4195         2.6546         2.6851        84.0311     
 8955.0000        13.7590         0.0394        80.0841        78.0975         4.1994        18.6312         2.8344         2.7010        86.0362     
 8955.5000        13.7828         0.0389        79.1682        81.2188         4.3984        18.5881         2.8978         2.7085        88.2009     
 8956.0000        13.8070         0.0320        76.1815        81.1563         4.5957        19.1215         2.9257         2.7016        87.1180     
 8956.5000        13.8336         0.0237        71.6972        77.5625         4.9219        19.6801         2.9628         2.7033        87.5148     
 8957.0000        13.8440         0.0164        67.9843        73.8109         5.2188        20.3956         3.0229         2.7095        89.3380     
 8957.5000        13.8438         0.0148        66.4267        69.9063         5.2598        20.9880         3.2525         2.7459        88.8482     
 8958.0000        13.8435         0.0148        66.6309        64.2969         5.2363        21.0899         3.4889         2.7994        85.8095     
 8958.5000        13.8433         0.0244        67.3677        57.6250         5.2207        20.3749         3.7215         2.8220        77.8272     
 8959.0000        13.8430         0.0425        68.0040        52.7670         5.2129        16.1049         3.8506         2.8097        76.8962     
 8959.5000        13.8428         0.0656        69.0377        51.2344         5.2012        13.0595         3.8202         2.7966        79.6595     
 8960.0000        13.8426         0.0944        72.1452        51.0313         5.1484        11.9955         3.7882         2.7786        88.0102     
 8960.5000        13.8423         0.0969        76.9639        51.2344         4.8613        12.9507         3.7814         2.7610        93.2291     
