~Version Information Section
VERS.          2.0                                     : CWLS LOG ASCII Standard
WRAP.          NO                                      : One line per depth step
CREA.          04/05/19                                : LAS Creation Date
~Well Information Section
STRT.ft        269.0000                                : Start Depth
STOP.ft        10060.0000                              : Stop Depth
STEP.ft        0.5000                                  : Step
NULL.          -999.2500                               : Null Value
COMP.          BRITOIL                                 : Company
WELL.          11/30a-9                                : Well
FLD .          BEATRICE                                : Field
LOC .          NORTH SEA                               : Location
LOC1.          6439409.78mN 491059.29mE                : Location (UTM) 
CTRY.          UK                                      : Country
PROV.          UKCS                                    : Province
UWI .          7462                                    : UWI Number
API .          -                                       : API Number
SECT.          -                                       : Section
TOWN.          -                                       : Township
RNGE.          -                                       : Range
PDAT.          MSL                                     : Perm Datum
EPD .ft        0.0                                     : Elevation
LMF .          RKB                                     : Log Measured From
DMF .          RKB                                     : Drill Measured From
APD .ft        102.0                                   : Above Perm Datum
EKB .ft        102.0                                   : Elev-Kelly Bushing
EDF .ft        101.0                                   : Elev-Drill Floor
EGL .ft        -173                                    : Elev-Ground Level (Water Depth)
TDD .ft        10060.00                                : Total Depth (Driller)
TDL .ft        10060.00                                : Total Depth (Logger)
SRVC.          SCHLUMBERGER                            : Service Company
LATI.          58 05 40.910 N                          : Latitude
LONG.          03 09 05.942 W                          : Longitude
DATE.          JUL-SEP-1983                            : Logging Date
PROJ.          UKCS                                    : Project
SET .          COMP WIRE                               : Set
~Curve Information Section
DEPTH.ft                                               : Depth Curve
CALI.in                                                : Density Caliper
DRHO.g/cc                                              : Density correction
DT.us/ft                                               : Delta-T
GR.gAPI                                                : Gamma Ray
ILD.ohmm                                               : Deep Induction Standard Processed Resistivity
NPHI.pu                                                : Neutron Porosity
PEF.b/e                                                : Photo-Electric Factor
RHOB.g/cc                                              : Bulk Density
SGR.gAPI                                               : Spectral Gamma Ray
~ASCII Log Data Section
# ...
 9623.5000        12.8060         0.0107        75.3125        75.8750         5.5781        26.5245         2.5341         2.6368        93.7719     
 9624.0000        12.7941         0.0117        73.5395        68.7813         5.8340        24.5308         3.2219         2.6475        93.1613     
 9624.5000        12.7452         0.0093        71.2039        63.7031         6.1367        21.8709         4.0557         2.6765        91.5857     
 9625.0000        12.6340         0.0064        69.1524        62.7031         6.4199        19.8114         3.7175         2.7208        87.7098     
 9625.5000        12.5304         0.0080        68.0114        65.5010         6.6388        19.3988         3.0916         2.7427        82.0756     
 9626.0000        12.5353         0.0111        67.7908        68.4063         6.8223        18.7017         2.5017         2.7227        80.7488     
 9626.5000        12.5433         0.0160        68.1700        71.8125         7.0000        19.0084         2.2750         2.7041        81.8987     
 9627.0000        12.5514         0.0210        68.6282        75.1563         7.1309        19.7883         2.1949         2.6977        82.4244     
 9627.5000        12.5594         0.0265        68.8398        76.8116         7.1758        20.6224         2.2810         2.6929        81.6947     
 9628.0000        12.5550         0.0335        68.8477        76.5313         7.1387        19.8502         2.4376         2.6821        81.6994     
 9628.5000        12.4570         0.0431        68.7098        76.8125         7.0566        19.2965         2.3171         2.6729        84.8374     
 9629.0000        12.4498         0.0527        68.3591        76.7813         6.9199        19.2624         2.2180         2.6667        87.1299     
 9629.5000        12.4527         0.0620        67.8929        75.5956         6.7462        19.3360         2.2470         2.6688        89.0448     
 9630.0000        12.4556         0.0682        67.6083        73.5625         6.6270        18.9089         2.2836         2.6772        88.2641     
 9630.5000        12.4586         0.0742        67.4509        74.0313         6.5703        18.8362         2.3201         2.6868        88.1693     
 9631.0000        12.4615         0.0802        67.2182        75.9688         6.5352        18.9144         2.3567         2.6966        88.7788     
 9631.5000        12.4644         0.0766        67.2085        72.5000         6.5234        17.8055         2.3588         2.6977        88.7594     
 9632.0000        12.4638         0.0719        67.8684        63.9459         6.5039        17.3721         2.3218         2.6822        89.6950     
 9632.5000        12.4466         0.0561        69.1328        54.7813         6.3262        16.5991         2.2812         2.6404        88.0685     
 9633.0000        12.4250         0.0348        70.5340        49.3594         6.0684        16.0450         2.2470         2.5957        82.8887     
 9633.5000        12.3511         0.0207        71.8923        46.1719         5.8672        15.0609         2.2184         2.5053        66.7346     
 9634.0000        12.3142         0.0197        73.2740        43.3119         5.6443        14.4185         2.1740         2.4929        52.8977     
 9634.5000        12.3293         0.0213        74.5041        42.2500         5.4238        13.9352         2.1124         2.5064        43.6847     
 9635.0000        12.3443         0.0243        75.2665        41.3750         5.2012        13.8419         2.1935         2.5260        43.5971     
 9635.5000        12.3404         0.0269        75.4909        41.3438         4.9902        13.8909         2.2768         2.5392        44.0188     
 9636.0000        12.3318         0.0289        75.5589        39.9557         4.8107        14.2757         2.2895         2.5422        41.9205     
 9636.5000        12.3152         0.0304        75.6798        37.9375         4.6406        14.6975         2.2613         2.5402        40.2713     
 9637.0000        12.2899         0.0304        75.6430        37.1406         4.5039        15.1182         2.2065         2.5235        41.4450     
 9637.5000        12.2646         0.0277        75.5484        36.7500         4.3984        15.5517         2.2329         2.5104        42.8625     
 9638.0000        12.2503         0.0242        76.2413        35.1406         4.3086        16.7755         2.3945         2.5060        38.9175     
 9638.5000        12.2589         0.0189        77.7566        32.0914         4.2030        17.5260         2.8214         2.4981        34.5280     
 9639.0000        12.2555         0.0149        78.5613        29.7813         4.1016        17.1618         3.5277         2.4820        32.1777     
 9639.5000        12.1768         0.0141        78.4717        29.8906         4.0107        16.5013         4.2347         2.4656        31.9529     
 9640.0000        12.0971         0.0134        77.8427        30.2422         3.9316        16.2206         4.3105         2.4526        32.8930     
 9640.5000        12.0786         0.0200        76.5815        28.8190         3.8769        16.8107         4.3597         2.4606        34.1496     
 9641.0000        12.0695         0.0457        75.1027        26.6563         3.8398        16.0852         4.3309         2.4835        35.3581     
 9641.5000        12.0605         0.0687        73.8558        24.4922         3.8262        14.6062         4.1676         2.4957        35.3587     
 9642.0000        12.0514         0.0671        73.0948        23.7891         3.8164        13.6883         4.1290         2.4917        32.9431     
 9642.5000        12.0423         0.0602        72.9188        24.2104         3.8027        14.3300         4.2051         2.4867        29.9664     
 9643.0000        12.0332         0.0540        73.1313        25.1563         3.7979        15.2081         4.3334         2.4824        28.1471     
 9643.5000        12.0241         0.0553        73.2733        25.2813         3.7930        15.9398         4.2361         2.4811        25.7351     
 9644.0000        12.0150         0.0552        73.0482        24.6797         3.7861        15.7984         4.0937         2.4783        24.0977     
 9644.5000        12.0089         0.0537        72.7011        23.6328         3.7734        14.9046         3.9947         2.4711        22.1207     
 9645.0000        12.0124         0.0501        72.4879        21.5060         3.7324        13.7672         4.0138         2.4624        21.1568     
 9645.5000        12.0160         0.0470        72.3012        18.9453         3.6465        12.6497         4.1113         2.4553        21.7663     
 9646.0000        12.0196         0.0464        72.1299        16.6055         3.5293        12.1582         4.1228         2.4530        23.3085     
 9646.5000        12.0232         0.0458        72.1202        16.2695         3.4414        12.1736         4.0766         2.4561        24.5109     
 9647.0000        12.0267         0.0453        72.0839        17.0941         3.4258        12.1297         4.0295         2.4656        23.1594     
 9647.5000        12.0303         0.0469        72.2206        17.2031         3.4570        12.0041         4.0258         2.4733        24.1071     
 9648.0000        12.0339         0.0492        73.3769        17.4297         3.4980        11.8771         4.0484         2.4690        25.5087     
 9648.5000        12.0375         0.0503        75.4982        18.4063         3.5273        11.7498         4.0815         2.4536        25.7485     
 9649.0000        12.0411         0.0465        77.9575        19.3667         3.5342        12.1752         4.0927         2.4401        23.6180     
 9649.5000        12.0447         0.0417        80.0222        19.9141         3.5303        13.7138         4.0928         2.4269        23.0938     
