~Version Information Section
VERS.          2.0                                     : CWLS LOG ASCII Standard
WRAP.          NO                                      : One line per depth step
CREA.          05/10/19                                : LAS Creation Date
~Well Information Section
STRT.ft        839.0000                                : Start Depth
STOP.ft        7387.0000                               : Stop Depth
STEP.ft        0.5000                                  : Step
NULL.          -999.5000                               : Null Value
COMP.          MESA PETROLEUM U.K. LTD.                : Company
WELL.          11/30-2                                 : Well
FLD .          EXPLORATION                             : Field
LOC .          NORTH SEA                               : Location
LOC1.          -                                       : Location (UTM)
CTRY.          UK                                      : Country
PROV.          UKCS                                    : Province
UWI .          799                                     : UWI Number
API .          -                                       : API Number
SECT.          -                                       : Section
TOWN.          -                                       : Township
RNGE.          -                                       : Range
PDAT.          MSL                                     : Perm Datum
EPD .ft        0.0                                     : Elevation
LMF .          KB                                      : Log Measured From
DMF .          KB                                      : Drill Measured From
APD .ft        113.0                                   : Above Perm Datum
EKB .ft        112.0                                   : Elev-Kelly Bushing
EDF .ft        111.0                                   : Elev-Drill Floor
EGL .ft        -158.0                                  : Elev-Ground Level (Water Depth)
TDD .ft        7407.0                                  : Total Depth (Driller)
TDL .ft        7388.00                                 : Total Depth (Logger)
SRVC.          SCHLUMBERGER                            : Service Company
LATI.          58 06 30.0 N                            : Latitude
LONG.          03 06 02.0 W                            : Longitude
DATE.          NOV-DEC-1976                            : Logging Date
PROJ.          UKCS                                    : Project
SET .          COMP_WIRE                               : Set
~Curve Information Section
DEPTH.ft                                                  : Depth Curve
CALI.in                                                : Caliper BHC-FDC
CALS.in                                                : Caliper DLL
DRHO.g/cc                                              : Delta Rho
DT.us/ft                                               : Delta-T
GR.gAPI                                                : Gamma Ray ISF
GRD.gAPI                                               : Gamma Ray FDC
GRL.gAPI                                               : Gamma Ray DLL
ILD.Ohmm                                               : Deep Induction Standard Processed Resistivity
LLD.Ohmm                                               : Latero-Log Deep (Resistivity)
LLS.Ohmm                                               : Latero-Log Shallow (Resistivity)
MSFL.Ohmm                                              : Msfl Resistivity
NPHI.pu                                                : Neutron Porosity
RHOB.g/cc                                              : Bulk Density
SFLU.Ohmm                                              : SFL Resistivity (Unaveraged)
SP.mV                                                  : Spontaneous Potential ISF
SPL.mV                                                 : Spontaneous Potential  DLL
~ASCII Log Data Section
# ...
 6423.0000         9.4058         8.5733         0.1412       100.7027       113.7132        90.2824       105.8541         7.1856         8.8237         9.4742         6.7620        39.7822         2.3228        11.2005        67.6956        90.3101     
 6423.5000         9.2081         8.5733         0.0507       102.3213       112.2728        90.1630       107.9719         7.6153         8.9423         9.6302         5.6342        42.6827         2.3202        12.1637        67.9840        90.3043     
 6424.0000         8.9644         8.5722         0.0106       104.0604       114.0267        89.4122       110.1084         8.1183        10.2728        10.2349        11.8382        44.7404         2.3323        13.5068        68.1575        90.2985     
 6424.5000         8.8496         8.5618         0.0074       105.2515       114.6931        89.1802       111.4443         8.4908        11.7184        12.1121        18.5219        45.4319         2.3381        14.8967        68.1137        90.2987     
 6425.0000         8.8496         8.5460         0.0081       105.8422       115.5629        90.7243       112.6178         8.9026        13.1780        14.5443        22.6264        44.8535         2.3291        16.0875        67.8175        90.3407     
 6425.5000         8.8496         8.5678         0.0130       106.0653       117.5412        93.4982       113.0313         9.5357        15.0553        16.5603        23.4995        43.7266         2.3310        16.9890        67.4325        90.3878     
 6426.0000         8.8496         8.5512         0.0213       106.1337       122.1912        94.8460       112.3995        10.2276        17.0525        17.9735        22.9166        42.4998         2.3390        17.5211        67.2289        90.4351     
 6426.5000         8.8496         8.5545         0.0191       106.0209       122.6546        94.8516       113.8314        10.7683        17.4635        18.7724        23.9682        41.8513         2.3336        17.9271        67.1940        90.4866     
 6427.0000         8.8496         8.5693         0.0181       105.4457       120.0970        94.4584       114.7529        11.1535        17.6240        19.3446        26.7442        42.6601         2.3449        18.1871        67.2518        90.5487     
 6427.5000         8.8496         8.5428         0.0192       104.3551       117.6960        94.1108       115.3586        11.3935        17.7678        19.5496        27.4180        42.3671         2.3667        18.0790        67.4062        90.6115     
 6428.0000         8.8496         8.5592         0.0162       102.9660       115.3554        93.2868       116.1865        11.4783        17.8321        19.2443        25.0798        42.2916         2.3882        17.9348        67.4763        90.6240     
 6428.5000         8.8496         8.5403         0.0127       101.7047       113.1315        91.3922       116.7282        11.4053        17.8801        18.9167        22.1539        42.3960         2.4081        18.1276        67.3544        90.5455     
 6429.0000         8.8496         8.5248         0.0230       100.8853       110.9901        88.6254       117.0370        11.1772        18.0777        19.0844        24.7108        42.5681         2.4180        18.4100        67.1651        90.4657     
 6429.5000         8.8496         8.5248         0.0356       100.3516       109.0333        86.3071       115.4077        10.8044        19.2155        20.0479        25.7707        41.5326         2.4237        18.4364        66.9458        90.4354     
 6430.0000         8.8496         8.5248         0.0281        99.6637       107.2728        86.3626       112.2562        10.3221        20.5946        22.1021        27.0256        39.5877         2.4150        18.0206        66.6940        90.4296     
 6430.5000         8.8497         8.5248         0.0196        98.7459       106.9770        88.1073       110.1011         9.7717        21.8177        22.6947        34.0083        38.7818         2.4129        17.0372        66.4743        90.3608     
 6431.0000         8.8497         8.5248         0.0229        97.9678       107.1887        88.7781       108.6610         9.1845        22.0244        22.1869        29.0946        39.1012         2.4235        15.7166        66.3173        90.0941     
 6431.5000         8.8497         8.5248         0.0378        97.7429       108.4663        88.4016       106.9040         8.5929        20.7489        20.6608        24.8861        39.5172         2.4217        14.3625        66.2569        89.8079     
 6432.0000         8.8497         8.5248         0.0580        98.3828       106.0133        88.5266       106.6996         8.0194        16.5730        18.0646        24.2100        39.6511         2.3960        13.2971        66.2561        89.5214     
 6432.5000         8.8486         8.5247         0.0942        99.8669       105.5803        88.1349       106.6404         7.4843        13.1953        14.9321        19.7166        41.1246         2.3631        12.6351        66.1227        89.2398     
 6433.0000         8.8283         8.5247         0.1711       101.9381       106.0898        87.3696       105.1304         6.8988        10.7386        12.5689        17.7953        44.2582         2.3688        12.2741        65.8036        89.1005     
 6433.5000         9.0440         8.5237         0.2258       103.9263       108.4855        87.2226       107.9555         6.2640        10.7779        12.3731        14.6208        45.2399         2.3576        12.0670        65.4262        88.9369     
 6434.0000         9.5869         8.5106         0.1997       105.0516       111.3830        86.7296       109.1176         5.7570        10.7056        12.1118        14.7261        45.2559         2.3298        11.6426        65.0137        88.4892     
 6434.5000         9.8338         8.4792         0.1326       105.1922       114.3785        86.6221       110.2065         5.3955         6.9316        11.2470        10.6814        46.1556         2.3077        10.7571        64.5383        87.9825     
 6435.0000         9.2895         8.4798         0.0569       103.5418       116.4498        87.7240       112.0430         5.0084         8.0242        10.0492         8.9625        44.3450         2.3336         9.5164        64.1064        87.5125     
 6435.5000         8.7822         8.4984         0.0014        96.9793       115.8104        88.8598       112.9573         4.6467         9.6478        10.2750        14.2350        37.6460         2.4257         8.1994        63.8724        87.0675     
 6436.0000         8.6992         8.5182        -0.0057        84.3845       114.9967        89.3957       113.3862         4.5576         7.9255        10.0928        15.4104        28.7981         2.5301         7.3861        63.7823        86.5705     
 6436.5000         8.6700         8.4964         0.0070        75.7817       112.8504        90.0396       114.4559         4.9509         4.7491         7.2750         9.3300        19.2644         2.5970         6.9398        63.7568        85.6510     
 6437.0000         8.6494         8.4782         0.0178        70.3971       108.2139        89.8454       113.4419         5.4771         4.0237         4.7726         9.6926        13.1899         2.5771         7.0846        63.8307        84.6405     
 6437.5000         8.6240         8.4763         0.0069        70.6062       101.8420        86.6606       111.9958         6.1125         4.3901         5.6633        21.2196        12.0348         2.5784         9.7404        63.8431        84.2250     
 6438.0000         8.5996         8.4763         0.0069        67.7360        92.8128        76.8742       104.6314         6.8756         7.9161         9.5447        30.6567        12.1387         2.6136        14.8587        63.6285        83.9629     
 6438.5000         8.5996         8.4762         0.0081        66.4868        79.5816        62.8790        89.6338         8.7797        17.5041        18.1964        36.6868        11.9945         2.6393        18.8772        63.3528        83.9970     
