~Version Information Section
VERS.          2.0                                     : CWLS LOG ASCII Standard
WRAP.          NO                                      : One line per depth step
CREA.          04/05/19                                : LAS Creation Date
~Well Information Section
STRT.ft        269.0000                                : Start Depth
STOP.ft        10060.0000                              : Stop Depth
STEP.ft        0.5000                                  : Step
NULL.          -999.2500                               : Null Value
COMP.          BRITOIL                                 : Company
WELL.          11/30a-9                                : Well
FLD .          BEATRICE                                : Field
LOC .          NORTH SEA                               : Location
LOC1.          6439409.78mN 491059.29mE                : Location (UTM) 
CTRY.          UK                                      : Country
PROV.          UKCS                                    : Province
UWI .          7462                                    : UWI Number
API .          -                                       : API Number
SECT.          -                                       : Section
TOWN.          -                                       : Township
RNGE.          -                                       : Range
PDAT.          MSL                                     : Perm Datum
EPD .ft        0.0                                     : Elevation
LMF .          RKB                                     : Log Measured From
DMF .          RKB                                     : Drill Measured From
APD .ft        102.0                                   : Above Perm Datum
EKB .ft        102.0                                   : Elev-Kelly Bushing
EDF .ft        101.0                                   : Elev-Drill Floor
EGL .ft        -173                                    : Elev-Ground Level (Water Depth)
TDD .ft        10060.00                                : Total Depth (Driller)
TDL .ft        10060.00                                : Total Depth (Logger)
SRVC.          SCHLUMBERGER                            : Service Company
LATI.          58 05 40.910 N                          : Latitude
LONG.          03 09 05.942 W                          : Longitude
DATE.          JUL-SEP-1983                            : Logging Date
PROJ.          UKCS                                    : Project
SET .          COMP WIRE                               : Set
~Curve Information Section
DEPTH.ft                                               : Depth Curve
CALI.in                                                : Density Caliper
DRHO.g/cc                                              : Density correction
DT.us/ft                                               : Delta-T
GR.gAPI                                                : Gamma Ray
ILD.ohmm                                               : Deep Induction Standard Processed Resistivity
NPHI.pu                                                : Neutron Porosity
PEF.b/e                                                : Photo-Electric Factor
RHOB.g/cc                                              : Bulk Density
SGR.gAPI                                               : Spectral Gamma Ray
~ASCII Log Data Section
# ...
 9464.5000        14.0086         0.0176        76.7548        77.4692         5.0665        28.9142         3.9536         2.7435       105.8089     
 9465.0000        14.0300         0.0145        76.0559        80.5938         4.9941        27.8691         3.2756         2.7224       107.0077     
 9465.5000        14.0430         0.0145        70.3864        84.8125         4.8516        27.1724         2.5990         2.6916       105.1563     
 9466.0000        14.0320         0.0136        65.6719        87.7188         4.6875        28.9543         2.1238         2.6508       105.2934     
 9466.5000        14.0920         0.0208        83.3226        88.6563         4.5723        31.7254         2.0367         2.6268       109.3388     
 9467.0000        14.2205         0.0256        83.7095        88.8459         4.5000        34.3022         2.0926         2.6155       104.8116     
 9467.5000        14.2470         0.0264        83.7118        92.8750         4.4551        36.4564         2.1985         2.6062       101.9673     
 9468.0000        14.2173         0.0196        84.3865        95.8125         4.4102        38.0936         2.2280         2.5899        99.9418     
 9468.5000        14.2209         0.0130        84.5618        95.9688         4.3711        36.7972         2.2428         2.5769       104.0676     
 9469.0000        14.1980         0.0119        84.2490        91.3678         4.3574        34.3549         2.1430         2.5741       105.4411     
 9469.5000        14.2133         0.0165        83.9690        86.6875         4.3633        33.3139         2.1173         2.5767       100.5287     
 9470.0000        14.3207         0.0296        83.9449        83.7500         4.3809        34.3197         2.3885         2.5741        91.1907     
 9470.5000        14.4704         0.0550        84.0850        81.8438         4.4180        34.6089         2.6425         2.5671        86.3711     
 9471.0000        14.6219         0.0756        83.6483        80.7813         4.4902        33.9618         2.6151         2.5804        88.6279     
 9471.5000        14.7192         0.0635        81.8208        79.7827         4.6291        34.1477         2.5400         2.5952        89.0214     
 9472.0000        14.7751         0.0319        79.5171        79.8125         4.8672        34.9874         2.6029         2.5935        90.5515     
 9472.5000        14.7750         0.0135        78.2710        81.3438         5.1152        34.5455         2.6878         2.5820        87.4051     
 9473.0000        14.7749         0.0288        78.0549        82.5313         5.3066        32.8800         2.6967         2.5849        85.3565     
 9473.5000        14.7748         0.0530        78.3892        80.2170         5.4689        32.0868         2.6860         2.6050        82.8717     
 9474.0000        14.7746         0.0651        79.1104        74.7813         5.5957        33.4163         2.6733         2.6186        83.2207     
 9474.5000        14.7745         0.0657        79.4249        70.0938         5.6973        34.9316         2.7289         2.6228        82.3426     
 9475.0000        14.7744         0.0571        78.7155        69.4688         5.7813        35.8397         2.9945         2.6130        80.5440     
 9475.5000        14.7878         0.0571        77.8796        69.6243         5.8769        37.8322         3.2069         2.5926        78.5940     
 9476.0000        14.9056         0.0593        78.7907        69.3438         5.9648        39.7189         3.0457         2.5717        77.6933     
 9476.5000        15.1846         0.0550        81.6468        66.6875         6.0039        40.4722         2.8259         2.5588        77.5169     
 9477.0000        15.2540         0.0375        83.8736        64.6563         6.0078        40.2127         2.6118         2.5383        75.7550     
 9477.5000        15.0793         0.0317        84.1500        63.9375         6.0078        39.4448         2.4190         2.5130        73.6019     
 9478.0000        15.2673         0.0485        83.8076        64.0637         5.6792        38.6236         2.3580         2.5157        79.5889     
 9478.5000        15.6295         0.0599        83.5298        66.6250         4.9922        37.4722         2.4517         2.5398        89.9075     
 9479.0000        15.7535         0.0394        82.9897        72.9063         4.4922        38.2036         2.5250         2.5373        99.6532     
 9479.5000        15.5541         0.0242        81.7171        82.8438         4.3262        37.0078         2.3955         2.5184        99.6492     
 9480.0000        15.4099         0.0314        82.1319        90.7539         4.3164        34.5314         2.2063         2.5283        99.4278     
 9480.5000        15.3332         0.0336        85.1627        93.1563         4.3398        28.7212         1.9509         2.5704       101.4828     
 9481.0000        15.0150         0.0190        87.0983        93.0313         4.3828        22.9826         1.8972         2.5988       101.5140     
 9481.5000        14.2578         0.0145        87.6288        92.3750         4.4727        19.6943         2.0119         2.6098        93.1963     
 9482.0000        14.1351         0.0157        87.0487        91.5941         4.6170        17.8460         2.1244         2.6006        85.0346     
 9482.5000        14.1327         0.0149        85.6474        89.7188         4.8164        17.2919         2.1706         2.5944        85.5165     
 9483.0000        14.1326         0.0143        83.7222        86.4688         5.0781        17.2764         2.2165         2.5847        88.6767     
 9483.5000        14.1139         0.0167        81.5649        80.7813         5.3516        16.9097         2.2760         2.5810        92.7532     
 9484.0000        14.1124         0.0207        79.4685        74.0313         5.5449        16.6488         2.2672         2.5702        93.2435     
 9484.5000        14.1249         0.0544        77.7278        68.3389         5.6720        17.1482         2.2168         2.5838        95.6906     
 9485.0000        14.4316         0.0732        76.6344        67.3125         5.7617        17.7502         2.1734         2.6223        96.4307     
 9485.5000        14.5893         0.0854        76.4822        68.0000         5.7656        20.3790         2.2491         2.6519        94.9731     
 9486.0000        14.5320         0.0600        77.5646        67.9688         5.7051        25.0407         2.2595         2.6407        94.1304     
 9486.5000        14.5214         0.0386        79.5442        68.4049         5.6406        29.2235         2.2632         2.6271        97.9864     
 9487.0000        14.4918         0.0376        81.6232        69.0625         5.5879        32.0597         2.3553         2.6172       101.9311     
 9487.5000        14.5145         0.0435        82.9402        72.3438         5.4492        35.3333         2.8736         2.5997       104.2729     
 9488.0000        14.6280         0.0532        83.7319        76.4375         5.0918        37.6643         3.4133         2.5828       101.7713     
 9488.5000        14.7266         0.0668        84.2447        80.4348         4.6546        38.5295         3.4197         2.5727        97.7881     
 9489.0000        14.8211         0.0822        84.3705        81.3437         4.3672        37.9904         3.0013         2.5732        91.8423     
 9489.5000        14.9504         0.0789        84.3613        78.8125         4.2402        36.4007         2.5827         2.5796        84.2366     
 9490.0000        15.2741         0.0526        84.6651        77.9063         4.1816        37.2212         2.3051         2.5857        79.2562     
 9490.5000        15.5819         0.0397        85.3083        76.6563         4.1406        38.1486         2.3361         2.5906        76.7722     
