~Version Information Section
VERS.          2.0                                     : CWLS LOG ASCII Standard
WRAP.          NO                                      : One line per depth step
CREA.          04/05/19                                : LAS Creation Date
~Well Information Section
STRT.ft        269.0000                                : Start Depth
STOP.ft        10060.0000                              : Stop Depth
STEP.ft        0.5000                                  : Step
NULL.          -999.2500                               : Null Value
COMP.          BRITOIL                                 : Company
WELL.          11/30a-9                                : Well
FLD .          BEATRICE                                : Field
LOC .          NORTH SEA                               : Location
LOC1.          6439409.78mN 491059.29mE                : Location (UTM) 
CTRY.          UK                                      : Country
PROV.          UKCS                                    : Province
UWI .          7462                                    : UWI Number
API .          -                                       : API Number
SECT.          -                                       : Section
TOWN.          -                                       : Township
RNGE.          -                                       : Range
PDAT.          MSL                                     : Perm Datum
EPD .ft        0.0                                     : Elevation
LMF .          RKB                                     : Log Measured From
DMF .          RKB                                     : Drill Measured From
APD .ft        102.0                                   : Above Perm Datum
EKB .ft        102.0                                   : Elev-Kelly Bushing
EDF .ft        101.0                                   : Elev-Drill Floor
EGL .ft        -173                                    : Elev-Ground Level (Water Depth)
TDD .ft        10060.00                                : Total Depth (Driller)
TDL .ft        10060.00                                : Total Depth (Logger)
SRVC.          SCHLUMBERGER                            : Service Company
LATI.          58 05 40.910 N                          : Latitude
LONG.          03 09 05.942 W                          : Longitude
DATE.          JUL-SEP-1983                            : Logging Date
PROJ.          UKCS                                    : Project
SET .          COMP WIRE                               : Set
~Curve Information Section
DEPTH.ft                                               : Depth Curve
CALI.in                                                : Density Caliper
DRHO.g/cc                                              : Density correction
DT.us/ft                                               : Delta-T
GR.gAPI                                                : Gamma Ray
ILD.ohmm                                               : Deep Induction Standard Processed Resistivity
NPHI.pu                                                : Neutron Porosity
PEF.b/e                                                : Photo-Electric Factor
RHOB.g/cc                                              : Bulk Density
SGR.gAPI                                               : Spectral Gamma Ray
~ASCII Log Data Section
# ...
 4138.0000      -999.2500      -999.2500      -999.2500        74.1745      -999.2500        31.1284      -999.2500      -999.2500        74.1745     
 4138.5000      -999.2500      -999.2500      -999.2500        77.1756      -999.2500        27.5311      -999.2500      -999.2500        77.1756     
 4139.0000      -999.2500      -999.2500      -999.2500        75.3941      -999.2500        29.0914      -999.2500      -999.2500        75.3941     
 4139.5000      -999.2500      -999.2500      -999.2500        71.1420      -999.2500        31.9140      -999.2500      -999.2500        71.1420     
 4140.0000      -999.2500      -999.2500      -999.2500        67.0189      -999.2500        36.3648      -999.2500      -999.2500        67.0189     
 4140.5000      -999.2500      -999.2500      -999.2500        67.6911      -999.2500        36.6925      -999.2500      -999.2500        67.6911     
 4141.0000      -999.2500      -999.2500      -999.2500        70.2400         6.8829        34.2414      -999.2500      -999.2500        70.2400     
 4141.5000      -999.2500      -999.2500      -999.2500        73.5405         7.8125        32.3101      -999.2500      -999.2500        73.5405     
 4142.0000      -999.2500      -999.2500      -999.2500        73.8098         9.0231        30.7543      -999.2500      -999.2500        73.8098     
 4142.5000        16.0255      -999.2500        98.3768        76.4826         9.8438        33.1163      -999.2500      -999.2500        76.4826     
 4143.0000        14.9946      -999.2500        99.8871        79.9850        13.9853        34.5198      -999.2500      -999.2500        79.9850     
 4143.5000        15.7092      -999.2500       101.0984        81.9734        14.6406        38.4308      -999.2500      -999.2500        81.9734     
 4144.0000        17.3064      -999.2500       101.4037        80.0751        10.2813        38.5778      -999.2500      -999.2500        80.0751     
 4144.5000        20.1641      -999.2500       101.5952        76.3146         8.5935        36.3908      -999.2500      -999.2500        76.3146     
 4145.0000        20.1036      -999.2500       102.0239        77.6416         8.0488        34.6317      -999.2500      -999.2500        77.6416     
 4145.5000        20.1460      -999.2500       102.9911        79.7480         7.4450        34.5686      -999.2500      -999.2500        79.7480     
 4146.0000        20.0025      -999.2500       104.0242        83.4740         7.2168        33.5283      -999.2500      -999.2500        83.4740     
 4146.5000        20.0338      -999.2500       103.8013        85.0556         7.7034        32.5483      -999.2500      -999.2500        85.0556     
 4147.0000        19.7691      -999.2500       103.1330        86.8488         8.0547        31.9616      -999.2500      -999.2500        86.8488     
 4147.5000        19.3616      -999.2500       103.2284        87.8085         8.2814        32.5168      -999.2500      -999.2500        87.8085     
 4148.0000        18.9323      -999.2500       102.8588        88.9667         8.5039        31.3789      -999.2500      -999.2500        88.9667     
 4148.5000        19.0428      -999.2500       100.9987        88.2301         8.5352        29.7654      -999.2500      -999.2500        88.2301     
 4149.0000        20.3118      -999.2500        98.7294        85.8643         8.5078        30.6857      -999.2500      -999.2500        85.8643     
 4149.5000        21.3312      -999.2500        96.9886        83.8948         8.4883        29.0718      -999.2500      -999.2500        83.8948     
 4150.0000        19.4697      -999.2500        95.7900        82.4908         8.4805        29.2771      -999.2500      -999.2500        82.4908     
 4150.5000        17.9917      -999.2500        95.2892        83.0085         8.5469        27.5147      -999.2500      -999.2500        83.0085     
 4151.0000        19.9143      -999.2500        95.4045        81.2564         8.6328        28.1963      -999.2500      -999.2500        81.2564     
 4151.5000        19.3961      -999.2500        95.6151        80.1276         8.6719        28.1276      -999.2500      -999.2500        80.1276     
 4152.0000        19.7629      -999.2500        95.1837        81.6614         8.7696        27.7407      -999.2500      -999.2500        81.6614     
 4152.5000        20.6141      -999.2500        94.0547        85.6854         8.9336        30.1138      -999.2500      -999.2500        85.6854     
 4153.0000        21.5486      -999.2500        93.3251        86.7168         9.2189        30.6064      -999.2500      -999.2500        86.7168     
 4153.5000        21.7633      -999.2500        94.2471        85.4172         9.6406        32.7072      -999.2500      -999.2500        85.4172     
 4154.0000        21.7283      -999.2500        97.4193        84.0954         9.8476        32.3794      -999.2500      -999.2500        84.0954     
 4154.5000        21.7583      -999.2500       101.3336        85.6626         9.8672        32.0820      -999.2500      -999.2500        85.6626     
 4155.0000        21.7208      -999.2500       103.8954        85.6875         9.9882        32.4704      -999.2500      -999.2500        85.6875     
 4155.5000        21.6370      -999.2500       104.7947        85.6250         9.8477        33.6895      -999.2500      -999.2500        85.6250     
 4156.0000        21.2963      -999.2500       103.8679        84.3737         9.5547        36.1547      -999.2500      -999.2500        84.3737     
 4156.5000        21.6345      -999.2500       102.1234        84.0737         9.3594        34.6707      -999.2500      -999.2500        84.0737     
 4157.0000        21.9018      -999.2500       101.6088        84.9026         8.7773        35.0271      -999.2500      -999.2500        84.9026     
 4157.5000        21.9017      -999.2500       102.6869        86.0429         8.1757        36.2517      -999.2500      -999.2500        86.0429     
 4158.0000        21.8906      -999.2500       104.3366        83.3682         7.9648        37.7689      -999.2500      -999.2500        83.3682     
 4158.5000        21.8863      -999.2500       105.4257        83.1125         7.7870        35.6042      -999.2500      -999.2500        83.1125     
 4159.0000        21.8982      -999.2500       105.3580        81.5885         7.6523        33.0605      -999.2500      -999.2500        81.5885     
 4159.5000        21.8911      -999.2500       103.9468        83.0867         7.6328        32.4497      -999.2500      -999.2500        83.0867     
 4160.0000        21.8685      -999.2500       101.9481        81.3619         7.7031        34.1082      -999.2500      -999.2500        81.3619     
 4160.5000        21.7698      -999.2500       100.5759        79.3865         7.8516        33.8418      -999.2500      -999.2500        79.3865     
 4161.0000        18.7817      -999.2500        99.7214        78.6234         7.9316        34.2895      -999.2500      -999.2500        78.6234     
 4161.5000        18.1674      -999.2500        99.0961        77.0603         7.9395        31.9811      -999.2500      -999.2500        77.0603     
 4162.0000        19.7748      -999.2500        98.8989        77.2283         7.8223        30.8141      -999.2500      -999.2500        77.2283     
 4162.5000        21.6326      -999.2500        99.2346        79.0644         7.5899        29.5835      -999.2500      -999.2500        79.0644     
 4163.0000        21.9470      -999.2500       100.7112        79.4238         7.4805        29.3504      -999.2500      -999.2500        79.4238     
 4163.5000        21.6085      -999.2500       102.7146        80.4477         7.4668        29.6821      -999.2500      -999.2500        80.4477     
 4164.0000        19.3729      -999.2500       102.9581        79.2404         7.5724        31.9275      -999.2500      -999.2500        79.2404     
