~Version Information Section
VERS.          2.0                                     : CWLS LOG ASCII Standard
WRAP.          NO                                      : One line per depth step
CREA.          05/10/19                                : LAS Creation Date
~Well Information Section
STRT.ft        839.0000                                : Start Depth
STOP.ft        7387.0000                               : Stop Depth
STEP.ft        0.5000                                  : Step
NULL.          -999.5000                               : Null Value
COMP.          MESA PETROLEUM U.K. LTD.                : Company
WELL.          11/30-2                                 : Well
FLD .          EXPLORATION                             : Field
LOC .          NORTH SEA                               : Location
LOC1.          -                                       : Location (UTM)
CTRY.          UK                                      : Country
PROV.          UKCS                                    : Province
UWI .          799                                     : UWI Number
API .          -                                       : API Number
SECT.          -                                       : Section
TOWN.          -                                       : Township
RNGE.          -                                       : Range
PDAT.          MSL                                     : Perm Datum
EPD .ft        0.0                                     : Elevation
LMF .          KB                                      : Log Measured From
DMF .          KB                                      : Drill Measured From
APD .ft        113.0                                   : Above Perm Datum
EKB .ft        112.0                                   : Elev-Kelly Bushing
EDF .ft        111.0                                   : Elev-Drill Floor
EGL .ft        -158.0                                  : Elev-Ground Level (Water Depth)
TDD .ft        7407.0                                  : Total Depth (Driller)
TDL .ft        7388.00                                 : Total Depth (Logger)
SRVC.          SCHLUMBERGER                            : Service Company
LATI.          58 06 30.0 N                            : Latitude
LONG.          03 06 02.0 W                            : Longitude
DATE.          NOV-DEC-1976                            : Logging Date
PROJ.          UKCS                                    : Project
SET .          COMP_WIRE                               : Set
~Curve Information Section
DEPTH.ft                                                  : Depth Curve
CALI.in                                                : Caliper BHC-FDC
CALS.in                                                : Caliper DLL
DRHO.g/cc                                              : Delta Rho
DT.us/ft                                               : Delta-T
GR.gAPI                                                : Gamma Ray ISF
GRD.gAPI                                               : Gamma Ray FDC
GRL.gAPI                                               : Gamma Ray DLL
ILD.Ohmm                                               : Deep Induction Standard Processed Resistivity
LLD.Ohmm                                               : Latero-Log Deep (Resistivity)
LLS.Ohmm                                               : Latero-Log Shallow (Resistivity)
MSFL.Ohmm                                              : Msfl Resistivity
NPHI.pu                                                : Neutron Porosity
RHOB.g/cc                                              : Bulk Density
SFLU.Ohmm                                              : SFL Resistivity (Unaveraged)
SP.mV                                                  : Spontaneous Potential ISF
SPL.mV                                                 : Spontaneous Potential  DLL
~ASCII Log Data Section
# ...
 7127.0000         8.6488         8.3202         0.0865        69.0056        59.2782        44.5749        45.0872        12.0729        21.8655        25.7413        33.1856        10.0721         2.5283        20.1895        61.4484        77.3597     
 7127.5000         8.6143         8.2729         0.0672        68.8823        52.3303        41.5246        37.5291        13.2298        23.1519        26.3430        29.4580        11.5102         2.5082        21.2995        61.4759        77.4722     
 7128.0000         8.5651         8.2254         0.0848        68.9763        42.0498        35.9309        30.4852        14.1272        24.2560        27.5648        32.1958        10.3822         2.5175        21.1679        61.4795        77.6203     
 7128.5000         8.4818         8.2033         0.0768        69.1972        34.7698        30.9285        24.3784        14.7114        25.2989        29.2818        29.9356         8.0129         2.4746        20.9027        61.4831        77.7083     
 7129.0000         8.4167         8.1974         0.0579        69.3550        30.2606        27.4359        20.7082        15.1277        26.6825        30.0522        30.8518         6.9656         2.4560        20.7588        61.4867        77.6202     
 7129.5000         8.3999         8.1920         0.0445        69.6278        25.7088        23.7122        17.9070        15.3720        28.1518        29.2940        35.6906         7.2147         2.4405        20.8579        61.3868        77.6826     
 7130.0000         8.3996         8.1861         0.0321        69.8534        21.0504        18.4107        16.7041        15.6192        27.1845        27.5918        37.5701         7.5766         2.4189        21.0551        61.1342        78.0664     
 7130.5000         8.3996         8.1784         0.0254        70.1440        18.2204        14.7600        16.2936        15.8837        25.0772        26.3252        34.6308         7.7287         2.4091        21.0738        60.9225        78.4732     
 7131.0000         8.3996         8.1717         0.0195        70.4502        18.3880        13.8542        17.4245        16.0584        23.6206        25.5201        31.9008         7.6508         2.4013        20.3502        61.2940        78.9026     
 7131.5000         8.3995         8.1844         0.0226        70.7129        20.2794        14.0981        19.3718        16.1416        24.2894        24.9583        30.8683         7.7437         2.4109        19.9899        61.6656        79.6118     
 7132.0000         8.3995         8.2078         0.0442        71.0165        21.7396        14.8824        21.7875        15.9240        25.1324        25.2676        28.6022         8.1674         2.4260        19.9926        62.0377        80.4210     
 7132.5000         8.3995         8.2396         0.0399        71.3932        23.6240        16.1944        24.5466        15.5536        25.5217        25.6741        29.8012         8.6344         2.4307        19.6674        62.4092        81.2324     
 7133.0000         8.3995         8.3069         0.0346        71.7351        27.0848        17.7783        27.8732        14.9503        24.6221        25.2754        30.2621         9.1329         2.4288        19.1795        62.7915        82.0658     
 7133.5000         8.4184         8.3779         0.0682        72.2940        32.6710        21.5719        34.6961        13.8672        21.9629        23.6721        25.9163         9.9087         2.4619        17.8874        63.1779        82.9469     
 7134.0000         8.5192         8.4438         0.1427        73.0184        39.5480        26.4898        46.6360        12.7824        19.8518        21.4097        28.7669        12.0177         2.5150        16.4293        63.5649        83.8282     
 7134.5000         8.6576         8.5082         0.2498        74.0055        50.3693        31.9052        58.9671        11.8556        17.8602        18.0010        21.5822        15.7161         2.5682        14.2432        63.9513        84.7071     
 7135.0000         8.7133         8.5719         0.3150        74.8793        61.2593        39.2332        69.5594        11.2600        14.9251        14.1193        15.1679        20.6057         2.5686        12.4062        64.3621        85.4815     
 7135.5000         8.8220         8.6231         0.2555        74.9538        73.4643        48.2833        78.7621        10.6644        11.8193        11.4437        11.1301        24.1123         2.4900        11.8090        64.7929        86.2049     
 7136.0000         9.0547         8.6599         0.2398        74.7559        87.7330        58.6311        84.2784        10.0678        10.4905        10.7087         8.4249        24.7743         2.4834        11.7218        65.1968        86.9058     
 7136.5000         9.2607         8.6951         0.2490        74.2465        98.7881        69.1115        86.8342         9.6295        10.5352        10.4846        13.9905        24.0086         2.5209        12.1601        65.4994        87.4371     
 7137.0000         9.4012         8.7163         0.2104        74.0908        98.8973        67.7869        83.7419         9.5322        10.9529        11.1101        14.7785        24.2640         2.4892        12.2628        65.5394        87.9308     
 7137.5000         9.6948         8.7746         0.1137        73.4330        96.0295        65.8614        82.3741         9.4348        11.3270        12.0562        14.7396        25.0561         2.4664        11.9388        65.8678        88.5623     
 7138.0000        10.0959         8.8509         0.0298        72.3082        93.6211        66.1975        83.1757         9.4941        11.2271        12.2087        15.3332        25.0310         2.4769        11.5225        66.3457        89.2372     
 7138.5000         9.8274         8.8689         0.0453        70.9221        91.3027        68.4925        83.1117         9.6396        11.1423        11.6220        17.1601        22.4882         2.5511        11.7287        66.3494        89.7583     
 7139.0000         9.3563         8.8116         0.0521        70.0006        89.6911        69.4040        82.1720         9.8156        11.5477        11.5461        18.2830        19.4425         2.5801        12.2275        65.9782        90.1269     
 7139.5000         9.2865         8.7613         0.0612        69.8270        87.8702        67.8974        81.8572         9.9987        12.3857        12.3791        17.7097        17.7887         2.5789        12.3041        65.5577        89.9921     
 7140.0000         9.1867         8.7042         0.1198        70.1189        85.7221        65.9109        81.5589         9.9221        13.2739        13.6545        17.5091        17.4947         2.5796        12.1244        65.5613        89.7638     
 7140.5000         8.9894         8.6628         0.1830        70.5582        82.4240        63.6294        79.1753         9.7454        13.6728        14.3260        15.6613        18.2875         2.6029        11.7747        65.6125        89.5859     
 7141.0000         8.8732         8.6514         0.2130        71.1108        78.4827        62.0965        74.7675         9.5252        13.4811        14.5073        14.8648        20.0182         2.5972        11.4255        65.8554        89.4796     
 7141.5000         9.0271         8.5775         0.1367        72.1168        75.8998        60.8553        71.2878         9.2194        13.0189        14.2330        15.5450        21.7326         2.5157        10.9578        66.0351        89.5835     
 7142.0000         8.7805         8.5134         0.0600        73.4463        77.1349        60.6982        73.0632         8.8199        12.1712        13.2123        14.4061        21.3756         2.4894        10.4882        66.1584        89.7960     
 7142.5000         8.7068         8.4771         0.0598        74.9952        81.8975        60.3133        78.6311         8.5540        10.2365        11.5880        17.1564        19.8039         2.5193        10.1425        66.1789        89.9277     
