~Version Information Section
VERS.          2.0                                     : CWLS LOG ASCII Standard
WRAP.          NO                                      : One line per depth step
CREA.          05/10/19                                : LAS Creation Date
~Well Information Section
STRT.ft        839.0000                                : Start Depth
STOP.ft        7387.0000                               : Stop Depth
STEP.ft        0.5000                                  : Step
NULL.          -999.5000                               : Null Value
COMP.          MESA PETROLEUM U.K. LTD.                : Company
WELL.          11/30-2                                 : Well
FLD .          EXPLORATION                             : Field
LOC .          NORTH SEA                               : Location
LOC1.          -                                       : Location (UTM)
CTRY.          UK                                      : Country
PROV.          UKCS                                    : Province
UWI .          799                                     : UWI Number
API .          -                                       : API Number
SECT.          -                                       : Section
TOWN.          -                                       : Township
RNGE.          -                                       : Range
PDAT.          MSL                                     : Perm Datum
EPD .ft        0.0                                     : Elevation
LMF .          KB                                      : Log Measured From
DMF .          KB                                      : Drill Measured From
APD .ft        113.0                                   : Above Perm Datum
EKB .ft        112.0                                   : Elev-Kelly Bushing
EDF .ft        111.0                                   : Elev-Drill Floor
EGL .ft        -158.0                                  : Elev-Ground Level (Water Depth)
TDD .ft        7407.0                                  : Total Depth (Driller)
TDL .ft        7388.00                                 : Total Depth (Logger)
SRVC.          SCHLUMBERGER                            : Service Company
LATI.          58 06 30.0 N                            : Latitude
LONG.          03 06 02.0 W                            : Longitude
DATE.          NOV-DEC-1976                            : Logging Date
PROJ.          UKCS                                    : Project
SET .          COMP_WIRE                               : Set
~Curve Information Section
DEPTH.ft                                                  : Depth Curve
CALI.in                                                : Caliper BHC-FDC
CALS.in                                                : Caliper DLL
DRHO.g/cc                                              : Delta Rho
DT.us/ft                                               : Delta-T
GR.gAPI                                                : Gamma Ray ISF
GRD.gAPI                                               : Gamma Ray FDC
GRL.gAPI                                               : Gamma Ray DLL
ILD.Ohmm                                               : Deep Induction Standard Processed Resistivity
LLD.Ohmm                                               : Latero-Log Deep (Resistivity)
LLS.Ohmm                                               : Latero-Log Shallow (Resistivity)
MSFL.Ohmm                                              : Msfl Resistivity
NPHI.pu                                                : Neutron Porosity
RHOB.g/cc                                              : Bulk Density
SFLU.Ohmm                                              : SFL Resistivity (Unaveraged)
SP.mV                                                  : Spontaneous Potential ISF
SPL.mV                                                 : Spontaneous Potential  DLL
~ASCII Log Data Section
# ...
 7047.0000         8.8000         8.5051         0.0140        74.6232       114.0096        87.3375       101.3155         9.5781        12.9181        13.9566        20.0820        24.5336         2.6105        12.6253        68.5137        92.8465     
 7047.5000         8.8000         8.5051         0.0215        74.8218       116.0168        87.4299       104.1388         9.3632        12.4336        13.3963        19.0973        25.2327         2.6218        12.4756        68.5502        92.9196     
 7048.0000         8.8000         8.5051         0.0259        75.1555       116.2996        86.2198       104.6804         9.1698        12.0304        12.9586        17.4790        25.5373         2.6295        12.2963        68.5830        93.1945     
 7048.5000         8.8000         8.5051         0.0257        75.6090       114.0642        85.9864       103.2291         8.9914        11.6978        12.5923        16.9513        24.9823         2.6319        12.0467        68.5830        93.2234     
 7049.0000         8.8000         8.5049         0.0088        75.9512       112.2355        86.2654       106.1036         8.8821        11.3808        12.2391        16.4762        23.7541         2.6136        11.8082        68.5751        91.5031     
 7049.5000         8.8000         8.4731        -0.0015        76.1415       110.5352        86.4575       108.6714         8.8393        11.0333        11.8613        15.7871        23.4599         2.5856        11.6929        68.5175        92.6799     
 7050.0000         8.8000         8.4580         0.0006        76.0495       107.5515        84.7412       107.9841         8.6862        10.6828        11.4873        15.3976        24.1258         2.5962        11.5850        68.4580        93.7210     
 7050.5000         8.8000         8.4566         0.0016        75.1800       107.7590        83.9873       107.1388         8.7141        10.3483        11.1838        15.8264        24.1137         2.6088        11.4696        68.4107        93.9264     
 7051.0000         8.8000         8.4566        -0.0003        73.1830       107.8689        85.1140       107.5085         8.7419        10.2406        10.9196        15.6767        22.0206         2.6050        11.8814        68.3430        93.9870     
 7051.5000         8.8000         8.4566         0.0006        71.1926       103.5400        86.3652       108.0502         8.7590        10.8150        11.2642        15.4596        19.7149         2.5989        12.2940        68.2963        93.8609     
 7052.0000         8.8000         8.4566         0.0033        70.1575        97.1190        83.8493       103.8862         8.6917        11.6643        11.9429        15.8177        17.4329         2.6074        12.7957        68.1685        93.8359     
 7052.5000         8.8000         8.4566         0.0110        70.9145        95.1359        78.6965       100.6166         8.6244        12.7340        13.0374        22.0082        18.3383         2.6311        13.1567        68.0182        94.0169     
 7053.0000         8.8000         8.4566         0.0292        72.4484        94.5857        75.9315       100.4852         8.4911        13.4401        14.2648        31.9545        22.6265         2.6280        12.2330        67.9581        94.1907     
 7053.5000         8.8000         8.4566         0.0349        74.2241        95.8585        76.3815       101.6333         8.3384        12.5705        13.4174        25.5683        23.8519         2.6078        11.3906        67.9581        94.0968     
 7054.0000         8.8000         8.4566         0.0300        75.3657       101.6144        80.6104       105.2494         8.1854        11.4161        11.8820        15.5093        23.8500         2.5999        10.5469        67.9581        93.9053     
 7054.5000         8.8000         8.4566         0.0322        75.8340       107.1990        86.4061       107.3539         7.9711        10.7079        11.1268        14.9263        23.2293         2.6046        10.2844        67.9632        93.6217     
 7055.0000         8.8000         8.4566         0.0273        75.7888       111.0445        90.1481       107.0652         7.7373        10.0165        10.6069        13.7621        22.9823         2.5961        10.2278        68.0188        93.9467     
 7055.5000         8.8000         8.4566         0.0142        75.6733       113.3506        91.7871       106.0964         7.5036         9.6969        10.2460        16.4140        23.1773         2.5932        10.1821        68.0816        94.1142     
 7056.0000         8.8000         8.4566         0.0085        75.7073       113.8327        92.5588       106.1929         7.3283         9.6852        10.3287        15.7495        23.7329         2.5891        10.1297        68.0218        94.1667     
 7056.5000         8.8000         8.4566         0.0101        75.9376       114.3139        91.9344       108.0336         7.2368         9.7597        10.4164        14.2047        24.0101         2.5851        10.0637        67.8474        94.1512     
 7057.0000         8.8000         8.4566         0.0141        76.1813       114.7952        90.3535       112.4691         7.1596         9.6371         9.9474        14.5265        24.5798         2.5913         9.8832        67.7616        94.1141     
 7057.5000         8.8000         8.4566         0.0190        75.2801       115.1668        88.8217       113.2192         7.1277         9.2806         9.4281        14.7230        25.4095         2.5923         9.7178        67.7445        94.0757     
 7058.0000         8.8000         8.4566         0.0228        73.5616       113.8225        87.1587       113.3422         7.0841         8.9269         9.2100        13.7019        25.1794         2.5977         9.7192        67.4656        94.0372     
 7058.5000         8.8000         8.4566         0.0208        71.5932       112.4081        86.6427       112.7804         7.0022         8.8290         9.2692        12.3310        22.4195         2.6020         9.9197        67.2628        93.9987     
 7059.0000         8.8000         8.4566         0.0156        70.8073       112.5702        86.1004       112.7774         6.9203         9.0857         9.7671        13.9285        19.8052         2.6080        10.2502        67.2340        93.9633     
 7059.5000         8.8371         8.4566         0.0099        71.5669       111.5897        83.6979       112.8963         6.8010         9.5517        10.2235        24.7337        20.8765         2.6138        10.3597        67.0045        93.9526     
 7060.0000         8.8500         8.4754         0.0104        73.5674       108.6517        82.0195       113.4158         6.6772         9.9974        10.6093        28.5552        24.6350         2.6034         9.9166        66.8194        93.9506     
 7060.5000         8.8174         8.4981         0.0179        76.0233       110.5746        81.9814       115.3054         6.5784        10.1016        10.6370        16.8664        26.2092         2.6074         9.5925        66.8219        93.9486     
 7061.0000         8.8300         8.5050         0.0204        77.8759       114.0344        84.4794       116.4652         6.4831         9.7085        10.3060        14.3726        26.7682         2.6061         9.3577        67.0333        93.9466     
 7061.5000         8.8500         8.5230         0.0143        78.9457       117.0647        88.1337       114.9916         6.3837         9.1477         9.9268        13.7199        27.1364         2.6035         9.0898        67.3403        93.9446     
 7062.0000         8.8500         8.5459         0.0240        79.6075       118.9807        89.7054       114.0192         6.2775         8.7519         9.3776        13.4068        27.1548         2.6052         8.8218        67.3054        93.9426     
 7062.5000         8.8187         8.5535         0.0717        80.3057       120.4680        90.7053       113.3191         6.1804         8.4559         8.8631        13.6882        26.7376         2.6375         8.5820        66.9371        93.9406     
