~Version Information Section
VERS.          2.0                                     : CWLS LOG ASCII Standard
WRAP.          NO                                      : One line per depth step
CREA.          04/05/19                                : LAS Creation Date
~Well Information Section
STRT.ft        269.0000                                : Start Depth
STOP.ft        10060.0000                              : Stop Depth
STEP.ft        0.5000                                  : Step
NULL.          -999.2500                               : Null Value
COMP.          BRITOIL                                 : Company
WELL.          11/30a-9                                : Well
FLD .          BEATRICE                                : Field
LOC .          NORTH SEA                               : Location
LOC1.          6439409.78mN 491059.29mE                : Location (UTM) 
CTRY.          UK                                      : Country
PROV.          UKCS                                    : Province
UWI .          7462                                    : UWI Number
API .          -                                       : API Number
SECT.          -                                       : Section
TOWN.          -                                       : Township
RNGE.          -                                       : Range
PDAT.          MSL                                     : Perm Datum
EPD .ft        0.0                                     : Elevation
LMF .          RKB                                     : Log Measured From
DMF .          RKB                                     : Drill Measured From
APD .ft        102.0                                   : Above Perm Datum
EKB .ft        102.0                                   : Elev-Kelly Bushing
EDF .ft        101.0                                   : Elev-Drill Floor
EGL .ft        -173                                    : Elev-Ground Level (Water Depth)
TDD .ft        10060.00                                : Total Depth (Driller)
TDL .ft        10060.00                                : Total Depth (Logger)
SRVC.          SCHLUMBERGER                            : Service Company
LATI.          58 05 40.910 N                          : Latitude
LONG.          03 09 05.942 W                          : Longitude
DATE.          JUL-SEP-1983                            : Logging Date
PROJ.          UKCS                                    : Project
SET .          COMP WIRE                               : Set
~Curve Information Section
DEPTH.ft                                               : Depth Curve
CALI.in                                                : Density Caliper
DRHO.g/cc                                              : Density correction
DT.us/ft                                               : Delta-T
GR.gAPI                                                : Gamma Ray
ILD.ohmm                                               : Deep Induction Standard Processed Resistivity
NPHI.pu                                                : Neutron Porosity
PEF.b/e                                                : Photo-Electric Factor
RHOB.g/cc                                              : Bulk Density
SGR.gAPI                                               : Spectral Gamma Ray
~ASCII Log Data Section
# ...
10021.0000        12.1081         0.0105      -999.2500        26.5391         8.1680         4.0573         2.4955         2.5586        37.3917     
10021.5000        12.0504         0.0110      -999.2500        24.2109         8.2773         3.1327         2.7837         2.5499        34.7650     
10022.0000        11.9928         0.0286      -999.2500        22.7344         8.5352         2.5325         3.1255         2.5604        32.3985     
10022.5000        11.9351         0.0534      -999.2500        21.9208         8.8205         2.2101         3.6844         2.5616        31.6116     
10023.0000        11.8859         0.0677      -999.2500        20.6250         8.9805         2.4825         3.9371         2.5591        32.8790     
10023.5000        11.8704         0.0792      -999.2500        20.2188         8.9141         3.0808         4.0204         2.5470      -999.2500     
10024.0000        11.8574         0.0861      -999.2500        20.5859         8.5938         3.6845         4.1352         2.5503      -999.2500     
10024.5000        11.8444         0.0928      -999.2500        20.0791         8.1878         4.1140         4.4801         2.5542      -999.2500     
10025.0000        11.8314         0.0980      -999.2500        18.6875         7.8848         4.3785         4.6768         2.5607      -999.2500     
10025.5000        11.8477         0.0963      -999.2500      -999.2500         7.7051         4.2759         4.8626         2.5580      -999.2500     
10026.0000        11.8797         0.0893      -999.2500      -999.2500         7.5293         4.7261         4.9357         2.5373      -999.2500     
10026.5000        11.9116         0.0768      -999.2500      -999.2500         7.3184         4.8883         5.0391         2.5181      -999.2500     
10027.0000        11.9339         0.0777      -999.2500      -999.2500         7.1601         4.7644         4.8553         2.5152      -999.2500     
10027.5000        11.9462         0.0899      -999.2500      -999.2500         7.1211         4.6191         4.9152         2.5246      -999.2500     
10028.0000        11.8981         0.0994      -999.2500      -999.2500         7.1797         4.5089         5.2876         2.5353      -999.2500     
10028.5000        11.8383         0.0973      -999.2500      -999.2500         7.2402         4.4394         6.0054         2.5307      -999.2500     
10029.0000        11.7891         0.0913      -999.2500      -999.2500         7.3087         4.6300         6.6610         2.5242      -999.2500     
10029.5000        11.7721         0.1013      -999.2500      -999.2500         7.3906         4.7731         6.9631         2.5295      -999.2500     
10030.0000        11.7575         0.1138      -999.2500      -999.2500         7.4492         4.7465         6.7419         2.5482      -999.2500     
10030.5000        11.7680         0.1341      -999.2500      -999.2500         7.5391         4.6914         6.4262         2.5721      -999.2500     
10031.0000        11.8010         0.1645      -999.2500      -999.2500         7.6464      -999.2500         6.2952         2.5840      -999.2500     
10031.5000        11.8392         0.1694      -999.2500      -999.2500         7.6934      -999.2500         6.1663         2.5846      -999.2500     
10032.0000        11.8740         0.1692      -999.2500      -999.2500         7.6914      -999.2500         5.5806         2.5761      -999.2500     
10032.5000        11.8885         0.1616      -999.2500      -999.2500         7.6387      -999.2500         5.1957         2.5710      -999.2500     
10033.0000        11.8816         0.1448      -999.2500      -999.2500         7.4668      -999.2500         4.7267         2.5611      -999.2500     
10033.5000        11.8856         0.1271      -999.2500      -999.2500         7.2225      -999.2500         4.6304         2.5488      -999.2500     
10034.0000        11.9570         0.1088      -999.2500      -999.2500         7.0098      -999.2500         4.5002         2.5384      -999.2500     
10034.5000        12.0461         0.1042      -999.2500      -999.2500         6.8594      -999.2500         4.5230         2.5404      -999.2500     
10035.0000        12.0555         0.1087      -999.2500      -999.2500         6.7676      -999.2500         4.6508         2.5483      -999.2500     
10035.5000        12.0356         0.1125      -999.2500      -999.2500         6.6659      -999.2500         4.6431         2.5543      -999.2500     
10036.0000        12.0329         0.1167      -999.2500      -999.2500         6.5664      -999.2500         4.6693         2.5515      -999.2500     
10036.5000        12.0250         0.1219      -999.2500      -999.2500         6.5176      -999.2500         4.5500         2.5521      -999.2500     
10037.0000        12.0120         0.1291      -999.2500      -999.2500         6.5098      -999.2500         4.4630         2.5598      -999.2500     
10037.5000        11.9678         0.1344      -999.2500      -999.2500         6.5390      -999.2500         4.6075         2.5712      -999.2500     
10038.0000        11.9403         0.1395      -999.2500      -999.2500         6.5645      -999.2500         4.6097         2.5837      -999.2500     
10038.5000        11.9022         0.1415      -999.2500      -999.2500         6.5664      -999.2500         4.6229         2.5812      -999.2500     
10039.0000        11.8706         0.1449      -999.2500      -999.2500         6.5391      -999.2500         4.5491         2.5796      -999.2500     
10039.5000        11.8462         0.1504      -999.2500      -999.2500         6.4824      -999.2500         4.9360         2.5742      -999.2500     
10040.0000        11.8817         0.1454      -999.2500      -999.2500         6.4551      -999.2500         5.4486         2.5672      -999.2500     
10040.5000        11.9310         0.1389      -999.2500      -999.2500         6.4473      -999.2500         5.5933         2.5608      -999.2500     
10041.0000        11.9599         0.1289      -999.2500      -999.2500         6.4395      -999.2500         5.3503         2.5455      -999.2500     
10041.5000        11.8866         0.1333      -999.2500      -999.2500         6.4473      -999.2500         4.8319         2.5382      -999.2500     
10042.0000        11.7943         0.1448      -999.2500      -999.2500         6.4707      -999.2500         4.4023         2.5470      -999.2500     
10042.5000        11.7589         0.1499      -999.2500      -999.2500         6.4883      -999.2500         4.0427         2.5621      -999.2500     
10043.0000        11.7592         0.1568      -999.2500      -999.2500         6.4766      -999.2500         3.9223         2.5816      -999.2500     
10043.5000        11.7532         0.1530      -999.2500      -999.2500         6.4453      -999.2500         3.8870         2.5802      -999.2500     
10044.0000        11.7023         0.1469      -999.2500      -999.2500         6.3985      -999.2500         3.8544         2.5706      -999.2500     
10044.5000        11.7671         0.1441      -999.2500      -999.2500         6.3164      -999.2500         3.5320         2.5564      -999.2500     
10045.0000        11.8503         0.1441      -999.2500      -999.2500         6.2090      -999.2500         3.3327         2.5488      -999.2500     
10045.5000        11.8979         0.1433      -999.2500      -999.2500         6.0977      -999.2500         3.1473         2.5564      -999.2500     
10046.0000        11.8896         0.1356      -999.2500      -999.2500         5.9648      -999.2500         3.2360         2.5632      -999.2500     
10046.5000        11.8834         0.1039      -999.2500      -999.2500         5.8261      -999.2500         3.2820         2.5426      -999.2500     
10047.0000        11.8910         0.0718      -999.2500      -999.2500         5.6934      -999.2500         3.3482         2.5173      -999.2500     
