~Version Information Section
VERS.          2.0                                     : CWLS LOG ASCII Standard
WRAP.          NO                                      : One line per depth step
CREA.          04/05/19                                : LAS Creation Date
~Well Information Section
STRT.ft        269.0000                                : Start Depth
STOP.ft        10060.0000                              : Stop Depth
STEP.ft        0.5000                                  : Step
NULL.          -999.2500                               : Null Value
COMP.          BRITOIL                                 : Company
WELL.          11/30a-9                                : Well
FLD .          BEATRICE                                : Field
LOC .          NORTH SEA                               : Location
LOC1.          6439409.78mN 491059.29mE                : Location (UTM) 
CTRY.          UK                                      : Country
PROV.          UKCS                                    : Province
UWI .          7462                                    : UWI Number
API .          -                                       : API Number
SECT.          -                                       : Section
TOWN.          -                                       : Township
RNGE.          -                                       : Range
PDAT.          MSL                                     : Perm Datum
EPD .ft        0.0                                     : Elevation
LMF .          RKB                                     : Log Measured From
DMF .          RKB                                     : Drill Measured From
APD .ft        102.0                                   : Above Perm Datum
EKB .ft        102.0                                   : Elev-Kelly Bushing
EDF .ft        101.0                                   : Elev-Drill Floor
EGL .ft        -173                                    : Elev-Ground Level (Water Depth)
TDD .ft        10060.00                                : Total Depth (Driller)
TDL .ft        10060.00                                : Total Depth (Logger)
SRVC.          SCHLUMBERGER                            : Service Company
LATI.          58 05 40.910 N                          : Latitude
LONG.          03 09 05.942 W                          : Longitude
DATE.          JUL-SEP-1983                            : Logging Date
PROJ.          UKCS                                    : Project
SET .          COMP WIRE                               : Set
~Curve Information Section
DEPTH.ft                                               : Depth Curve
CALI.in                                                : Density Caliper
DRHO.g/cc                                              : Density correction
DT.us/ft                                               : Delta-T
GR.gAPI                                                : Gamma Ray
ILD.ohmm                                               : Deep Induction Standard Processed Resistivity
NPHI.pu                                                : Neutron Porosity
PEF.b/e                                                : Photo-Electric Factor
RHOB.g/cc                                              : Bulk Density
SGR.gAPI                                               : Spectral Gamma Ray
~ASCII Log Data Section
# ...
 9014.0000        14.2813         0.0319        78.2411        78.0625         4.4316        21.3752         2.7114         2.6911        90.1255     
 9014.5000        14.2318         0.0341        77.9745        78.7500         4.4297        21.2481         2.6888         2.6944        88.8006     
 9015.0000        14.2135         0.0422        77.8732        80.5313         4.4297        21.6130         2.6881         2.6964        92.3591     
 9015.5000        14.1956         0.0517        77.8771        80.6240         4.4277        21.6348         2.8434         2.6994        93.1061     
 9016.0000        14.1519         0.0608        77.8460        78.5625         4.4277        21.7415         2.9343         2.7079        90.3290     
 9016.5000        14.1464         0.0597        77.6410        78.7188         4.4023        21.4701         3.0038         2.7032        86.4121     
 9017.0000        14.1345         0.0475        77.3357        80.0938         4.4609        22.1886         3.0227         2.6851        82.5712     
 9017.5000        14.1232         0.0312        77.0566        81.0606         4.5508        22.2918         3.0228         2.6641        83.3578     
 9018.0000        14.1204         0.0293        76.8746        81.7813         4.5410        21.2499         3.2511         2.6627        84.5464     
 9018.5000        14.1204         0.0375        76.7919        81.3438         4.5234        19.6399         3.2474         2.6762        85.7635     
 9019.0000        14.1204         0.0465        76.7517        82.2813         4.5137        18.9632         2.9810         2.6867        86.7919     
 9019.5000        14.1204         0.0455        76.7202        81.1563         4.5020        19.0042         2.7349         2.6856        85.1620     
 9020.0000        14.1204         0.0381        76.6817        79.9075         4.4844        18.9760         2.6980         2.6905        83.1177     
 9020.5000        14.1204         0.0345        76.5841        79.3438         4.4434        19.0467         2.7827         2.6962        80.7498     
 9021.0000        14.1204         0.0304        76.6098        78.0938         4.4121        19.5105         2.7953         2.6983        82.4255     
 9021.5000        14.0736         0.0221        77.1392        77.6250         4.4043        20.4674         2.8616         2.6899        84.7323     
 9022.0000        14.0389         0.0138        77.9050        77.2816         4.3769        21.3374         2.9828         2.6926        86.1931     
 9022.5000        13.9957         0.0077        78.3838        78.3125         4.3320        21.6371         3.0551         2.6980        86.6534     
 9023.0000        13.9519         0.0069        78.6213        80.2500         4.2891        20.8114         2.8862         2.7085        88.3624     
 9023.5000        13.9408         0.0074        78.8329        80.7500         4.2578        19.4521         2.8682         2.7062        87.0394     
 9024.0000        13.9408         0.0076        79.1447        77.9410         4.2363        19.2316         2.8998         2.7032        83.4440     
 9024.5000        13.9396         0.0049        79.5134        76.3750         4.2246        20.9479         2.8206         2.6860        83.2717     
 9025.0000        13.9163         0.0076        79.7109        77.0625         4.2207        22.2508         2.7934         2.6680        86.6883     
 9025.5000        13.8282         0.0148        79.6001        80.2188         4.2168        22.5040         2.6248         2.6602        88.5002     
 9026.0000        13.7650         0.0316        79.3167        81.7500         4.2188        22.8127         2.6649         2.6684        87.2896     
 9026.5000        13.7446         0.0497        79.0828        81.3456         4.2227        23.6445         2.8169         2.6959        85.9607     
 9027.0000        13.7260         0.0529        78.9345        83.8125         4.2188        25.1439         2.8569         2.7090        88.2341     
 9027.5000        13.6708         0.0555        78.8419        85.6250         4.2168        24.6200         3.1152         2.7124        92.5722     
 9028.0000        13.6517         0.0506        78.8125        86.7188         4.2148        23.2739         3.0823         2.7064        96.4246     
 9028.5000        13.6517         0.0555        78.7956        84.6833         4.2129        22.1002         3.1372         2.7036       101.5226     
 9029.0000        13.6517         0.0596        78.7984        80.8750         4.2227        22.1382         2.8630         2.7083       103.9582     
 9029.5000        13.6517         0.0626        78.7432        80.3125         4.1699        23.1812         2.8704         2.7063       103.0130     
 9030.0000        13.6517         0.0625        78.4859        81.5000         4.0537        23.4884         2.8157         2.7139       100.0780     
 9030.5000        13.6517         0.0624        78.4613        83.9969         3.9834        23.3131         2.9069         2.7107        97.2613     
 9031.0000        13.6517         0.0627        78.9286        84.7500         3.9668        23.0092         2.8004         2.7108        97.2450     
 9031.5000        13.6517         0.0674        79.2032        84.0000         3.9639        23.2590         2.8138         2.7078        95.5142     
 9032.0000        13.6493         0.0753        79.0862        84.8438         3.9600        23.6064         2.8712         2.7164        91.9429     
 9032.5000        13.5976         0.0822        78.9884        84.7188         3.9600        23.0082         2.8812         2.7321        88.9821     
 9033.0000        13.5910         0.0755        78.7551        84.6883         3.9707        22.1076         2.9781         2.7446        88.3776     
 9033.5000        13.6390         0.0616        77.6926        84.5000         4.0029        21.2618         3.0309         2.7630        88.6303     
 9034.0000        13.6517         0.0460        75.8991        84.3125         4.0527        21.1938         3.0999         2.7747        87.9843     
 9034.5000        13.6517         0.0416        74.1777        83.9375         4.0977        21.3962         3.2256         2.7940        86.6662     
 9035.0000        13.6517         0.0405        73.4668        83.5946         4.1270        21.5988         3.1870         2.8028        88.4650     
 9035.5000        13.6517         0.0441        74.2120        84.0938         4.1953        21.6728         3.2460         2.8160        89.7144     
 9036.0000        13.6517         0.0460        75.6690        85.1250         4.2793        21.6393         3.4777         2.8232        92.5613     
 9036.5000        13.6517         0.0477        76.8036        83.2813         4.3145        21.6051         3.5783         2.8304        92.5602     
 9037.0000        13.6489         0.0488        77.3157        80.5622         4.3554        21.5637         3.4737         2.8234        92.3742     
 9037.5000        13.6113         0.0586        77.4678        81.5000         4.4102        21.4825         3.0975         2.7866        92.7851     
 9038.0000        13.5914         0.0589        77.6074        81.8750         4.4473        21.3703         3.0212         2.7490        90.6655     
 9038.5000        13.6350         0.0584        77.8582        80.0313         4.4629        21.2021         3.0673         2.7120        88.1449     
 9039.0000        13.6517         0.0521        78.1016        76.0938         4.4629        20.8489         3.1894         2.6985        86.0952     
 9039.5000        13.6517         0.0511        78.2896        75.8786         4.4648        20.4447         3.2924         2.6882        86.9209     
 9040.0000        13.6517         0.0488        78.3909        78.5313         4.4668        20.8371         3.1944         2.6879        88.8579     
