~Version Information Section
VERS.          2.0                                     : CWLS LOG ASCII Standard
WRAP.          NO                                      : One line per depth step
CREA.          05/10/19                                : LAS Creation Date
~Well Information Section
STRT.ft        839.0000                                : Start Depth
STOP.ft        7387.0000                               : Stop Depth
STEP.ft        0.5000                                  : Step
NULL.          -999.5000                               : Null Value
COMP.          MESA PETROLEUM U.K. LTD.                : Company
WELL.          11/30-2                                 : Well
FLD .          EXPLORATION                             : Field
LOC .          NORTH SEA                               : Location
LOC1.          -                                       : Location (UTM)
CTRY.          UK                                      : Country
PROV.          UKCS                                    : Province
UWI .          799                                     : UWI Number
API .          -                                       : API Number
SECT.          -                                       : Section
TOWN.          -                                       : Township
RNGE.          -                                       : Range
PDAT.          MSL                                     : Perm Datum
EPD .ft        0.0                                     : Elevation
LMF .          KB                                      : Log Measured From
DMF .          KB                                      : Drill Measured From
APD .ft        113.0                                   : Above Perm Datum
EKB .ft        112.0                                   : Elev-Kelly Bushing
EDF .ft        111.0                                   : Elev-Drill Floor
EGL .ft        -158.0                                  : Elev-Ground Level (Water Depth)
TDD .ft        7407.0                                  : Total Depth (Driller)
TDL .ft        7388.00                                 : Total Depth (Logger)
SRVC.          SCHLUMBERGER                            : Service Company
LATI.          58 06 30.0 N                            : Latitude
LONG.          03 06 02.0 W                            : Longitude
DATE.          NOV-DEC-1976                            : Logging Date
PROJ.          UKCS                                    : Project
SET .          COMP_WIRE                               : Set
~Curve Information Section
DEPTH.ft                                                  : Depth Curve
CALI.in                                                : Caliper BHC-FDC
CALS.in                                                : Caliper DLL
DRHO.g/cc                                              : Delta Rho
DT.us/ft                                               : Delta-T
GR.gAPI                                                : Gamma Ray ISF
GRD.gAPI                                               : Gamma Ray FDC
GRL.gAPI                                               : Gamma Ray DLL
ILD.Ohmm                                               : Deep Induction Standard Processed Resistivity
LLD.Ohmm                                               : Latero-Log Deep (Resistivity)
LLS.Ohmm                                               : Latero-Log Shallow (Resistivity)
MSFL.Ohmm                                              : Msfl Resistivity
NPHI.pu                                                : Neutron Porosity
RHOB.g/cc                                              : Bulk Density
SFLU.Ohmm                                              : SFL Resistivity (Unaveraged)
SP.mV                                                  : Spontaneous Potential ISF
SPL.mV                                                 : Spontaneous Potential  DLL
~ASCII Log Data Section
# ...
 6807.0000         8.4503         8.2757         0.0181        74.4020        28.2978        21.7025        29.8084        12.8041        15.3655        15.4453        58.0981        11.9845         2.3762        12.4613        60.7309        79.5344     
 6807.5000         8.4489         8.3166         0.0241        73.9407        28.4951        22.4804        29.1453        11.3988        15.7739        15.0949        43.0560        16.5119         2.3720        12.2245        60.8670        79.7407     
 6808.0000         8.4489         8.3623         0.0560        74.5144        30.3620        25.1146        30.9130         9.7274        12.1776        11.9842        18.4203        22.3183         2.3621        11.7685        61.2655        81.2118     
 6808.5000         8.5279         8.4402         0.0508        76.0563        39.1334        31.0857        37.7488         7.9398        10.8947        10.8209         4.4884        27.4506         2.2854        10.1973        61.8015        82.6797     
 6809.0000         8.8492         8.5265         0.0258        78.3307        47.8081        40.6396        46.8585         6.4956         9.9079         9.9535         1.3664        30.2193         2.1855         8.8833        62.5933        83.6546     
 6809.5000         9.0303         8.6607         0.0540        83.2100        58.6942        52.1747        58.1947         5.4557         8.4781         8.3003         3.2056        35.2173         2.0129         8.5181        62.9077        84.3875     
 6810.0000         9.7178         8.7492         0.0722        91.7123        72.6862        63.7733        68.8867         4.9668         6.8133         6.8187         2.1229        42.7448         1.7602         8.0692        63.2222        84.5334     
 6810.5000        11.8509         8.6943         0.0428        99.1906        80.3917        66.2844        77.9154         5.3980         5.2478         5.4229         0.4518        52.3834         1.6074         5.9584        63.5366        84.3956     
 6811.0000        13.7515         8.5942         0.0549       101.8026        81.4263        64.2446        79.3477         5.9178         3.9674         4.4470         0.3064        51.6919         1.7420         4.4347        63.4173        84.3917     
 6811.5000        14.5036         8.4613         0.0347        95.6485        74.0200        56.2756        75.4625         6.3747         3.6882         3.4386         3.1083        44.2449         2.0068         4.5848        63.2166        84.3581     
 6812.0000        11.0307         8.4565         0.0209        82.8966        65.5907        49.2899        69.4009         6.4764         4.7328         4.4950        15.7287        32.6684         2.2501         5.2434        63.1127        83.9112     
 6812.5000         8.6361         8.4451         0.0357        71.2297        60.0870        45.3715        63.9725         6.3961         8.0170         7.2240        22.8489        13.6641         2.4922         6.9493        62.9673        83.3990     
 6813.0000         8.6182         8.4173         0.0201        64.0972        58.2201        42.7077        61.0938         6.8395        14.8177        12.9580        30.8889         8.8143         2.5504        10.4701        62.7994        82.6328     
 6813.5000         8.6452         8.4084         0.0254        64.1691        55.1712        40.2177        57.1662         8.1945        21.7482        19.1980        48.2357         8.3717         2.5460        14.8436        62.5046        81.8038     
 6814.0000         8.6506         8.4080         0.0346        65.3696        48.4399        37.7302        52.0107        11.4995        28.6744        27.1477        63.8269         7.7103         2.5302        17.6806        62.1920        81.1624     
 6814.5000         8.6506         8.4080         0.0244        66.9636        45.7883        35.2337        46.8855        15.4434        32.6279        32.9545        61.7426         7.5259         2.4981        19.5970        61.9414        79.7812     
 6815.0000         8.6506         8.4132         0.0230        68.5445        44.2148        32.5571        41.5747        16.1435        34.8189        34.8311        76.0990         8.0068         2.4784        18.7216        61.7534        79.2797     
 6815.5000         8.6506         8.4340         0.0362        70.7174        39.7900        29.7897        36.4635        13.5668        33.8335        36.1539        60.1042         8.9765         2.4658        16.0530        61.5610        78.6602     
 6816.0000         8.6506         8.4554         0.0398        73.0414        35.3887        27.8739        34.0342        10.6640        21.7272        26.7956        36.6950        10.8614         2.4527        13.0436        61.3039        77.8656     
 6816.5000         8.6627         8.4565         0.0396        75.0539        33.4116        27.1550        32.5712         8.7626        12.6501        13.0108        17.3650        12.6679         2.4444        10.4672        60.9168        77.4591     
 6817.0000         8.6979         8.4565         0.0249        76.4683        36.4932        28.7443        33.3114         7.7705         8.4061         9.0410        10.5192        13.5778         2.4584         8.8404        60.4189        76.8596     
 6817.5000         8.7162         8.4657         0.0293        77.1976        39.8155        31.9586        35.3741         7.3168         7.6270         7.1079        13.8450        13.9421         2.4951         8.2677        60.0608        76.5517     
 6818.0000         8.7899         8.4988         0.0490        77.5593        44.5228        37.8498        39.8746         7.0953         8.2332         8.0483        14.0921        14.2647         2.5107         8.8094        59.9478        76.7978     
 6818.5000         8.8006         8.5048         0.0450        77.3085        49.3137        42.5430        45.9001         6.9812         9.7943         9.8252        13.2688        15.2215         2.4993         9.7076        59.9528        76.7557     
 6819.0000         8.8006         8.5250         0.0409        77.0155        54.7666        45.2923        54.3475         6.9558        10.3516        10.7263        14.3989        16.6060         2.4968         9.7071        60.0174        76.5590     
 6819.5000         8.8006         8.5706         0.0533        77.2991        58.1212        46.1303        55.7386         6.9558        10.5866        10.8722        15.3449        17.9177         2.4970         9.5681        60.0728        76.3369     
 6820.0000         8.8006         8.5728         0.0519        78.1251        60.0723        45.9823        54.6596         6.9518        10.1097        10.2700        14.8735        18.0380         2.4784         9.2117        60.0665        76.2518     
 6820.5000         8.8006         8.5723         0.0407        79.3028        60.6951        46.3659        54.6774         6.9163         9.4818         9.5483        11.6054        17.9552         2.4388         8.8451        59.9886        76.1882     
 6821.0000         8.8101         8.5719         0.0263        80.5079        59.0460        45.1466        54.1336         6.8876         8.7330         8.7804         9.5757        18.1946         2.4019         8.3294        59.7983        76.1665     
 6821.5000         8.8469         8.5715         0.0217        80.7849        55.4731        40.6668        51.8249         6.8384         8.1972         7.9010        11.6532        19.0743         2.3958         7.9197        59.6261        76.4076     
 6822.0000         8.8506         8.5711         0.0202        79.9806        49.1083        36.1933        48.0982         6.6972         7.4504         7.0632        14.1136        19.2807         2.4227         7.6684        59.5891        76.4765     
 6822.5000         8.8604         8.5744         0.0272        77.6243        48.7956        35.1039        46.8187         6.5087         6.8331         6.7991        11.3586        17.3320         2.4523         7.5040        59.7436        76.6704     
