~Version Information Section
VERS.          2.0                                     : CWLS LOG ASCII Standard
WRAP.          NO                                      : One line per depth step
CREA.          04/05/19                                : LAS Creation Date
~Well Information Section
STRT.ft        269.0000                                : Start Depth
STOP.ft        10060.0000                              : Stop Depth
STEP.ft        0.5000                                  : Step
NULL.          -999.2500                               : Null Value
COMP.          BRITOIL                                 : Company
WELL.          11/30a-9                                : Well
FLD .          BEATRICE                                : Field
LOC .          NORTH SEA                               : Location
LOC1.          6439409.78mN 491059.29mE                : Location (UTM) 
CTRY.          UK                                      : Country
PROV.          UKCS                                    : Province
UWI .          7462                                    : UWI Number
API .          -                                       : API Number
SECT.          -                                       : Section
TOWN.          -                                       : Township
RNGE.          -                                       : Range
PDAT.          MSL                                     : Perm Datum
EPD .ft        0.0                                     : Elevation
LMF .          RKB                                     : Log Measured From
DMF .          RKB                                     : Drill Measured From
APD .ft        102.0                                   : Above Perm Datum
EKB .ft        102.0                                   : Elev-Kelly Bushing
EDF .ft        101.0                                   : Elev-Drill Floor
EGL .ft        -173                                    : Elev-Ground Level (Water Depth)
TDD .ft        10060.00                                : Total Depth (Driller)
TDL .ft        10060.00                                : Total Depth (Logger)
SRVC.          SCHLUMBERGER                            : Service Company
LATI.          58 05 40.910 N                          : Latitude
LONG.          03 09 05.942 W                          : Longitude
DATE.          JUL-SEP-1983                            : Logging Date
PROJ.          UKCS                                    : Project
SET .          COMP WIRE                               : Set
~Curve Information Section
DEPTH.ft                                               : Depth Curve
CALI.in                                                : Density Caliper
DRHO.g/cc                                              : Density correction
DT.us/ft                                               : Delta-T
GR.gAPI                                                : Gamma Ray
ILD.ohmm                                               : Deep Induction Standard Processed Resistivity
NPHI.pu                                                : Neutron Porosity
PEF.b/e                                                : Photo-Electric Factor
RHOB.g/cc                                              : Bulk Density
SGR.gAPI                                               : Spectral Gamma Ray
~ASCII Log Data Section
# ...
 9941.5000        12.1599         0.0469        71.5992        48.7188         9.0938        11.2969         2.1043         2.5641        69.9474     
 9942.0000        12.1480         0.0479        72.3814        42.4408         9.1366        11.3328         2.1118         2.5491        60.3346     
 9942.5000        12.1361         0.0389        72.8116        37.3281         9.2969        11.3815         2.0162         2.5193        55.2271     
 9943.0000        12.1389         0.0384        73.5635        32.0391         9.2188         8.7669         2.1130         2.5067        47.7683     
 9943.5000        12.1544         0.0502        74.7388        27.3750         8.9531         6.5902         2.1827         2.5285        39.4642     
 9944.0000        12.1660         0.0675        74.2809        27.1953         8.9883         7.5203         2.3073         2.5611        34.9625     
 9944.5000        12.1991         0.0849        73.0750        32.8491         9.5045         9.0661         2.4228         2.5721        37.4619     
 9945.0000        12.2498         0.0873        73.6311        43.1563        10.1484        11.9889         2.3236         2.5287        44.8903     
 9945.5000        12.3004         0.0368        75.2927        56.9844        10.7930        16.4057         2.2890         2.4003        60.5004     
 9946.0000        12.2778         0.0215        77.1707        66.4688        11.9023        28.9051         2.0206         2.2856        75.6535     
 9946.5000        12.2348         0.0156        79.2162        66.8402        13.4349        33.7147         1.8900         2.2371        80.9666     
 9947.0000        12.1929         0.0123        80.4323        58.4844        15.1055        36.9796         1.8021         2.2654        70.1994     
 9947.5000        12.1564         0.0092        79.5875        49.1563        17.2578        30.6268         1.8725         2.3522        56.6730     
 9948.0000        12.1536         0.0069        76.3138        41.9219        20.1172        22.4792         1.9661         2.4538        47.1053     
 9948.5000        12.1540         0.0057        70.9359        34.7706        22.1399        11.6880         1.9938         2.5396        34.4074     
 9949.0000        12.1564         0.0182        65.7754        28.0078        22.2031         4.1520         2.0336         2.5712        30.5570     
 9949.5000        12.1665         0.0328        63.5854        23.4609        22.0547         1.3918         2.0378         2.5834        29.4672     
 9950.0000        12.1773         0.0408        62.4045        22.2656        23.0625         0.8013         2.0461         2.5782        29.8743     
 9950.5000        12.1882         0.0421        55.3953        22.2188        24.5703         0.9822         2.1476         2.5737        30.4518     
 9951.0000        12.1791         0.0272        55.3772        22.7113        25.9855         1.0688         2.2745         2.5665        30.6686     
 9951.5000        12.1288         0.0152        62.2407        22.4297        27.5156         0.9943         2.3142         2.5587        28.7944     
 9952.0000        12.0719         0.0114        62.2423        21.1094        28.9219         1.0417         2.3091         2.5465        26.6702     
 9952.5000        12.0567         0.0159        62.2869        19.4219        29.2422         1.0996         2.3315         2.5466        25.1129     
 9953.0000        12.0570         0.0204        61.0100        17.8896        28.8122         1.0583         2.4479         2.5568        23.8062     
 9953.5000        12.0573         0.0257        60.0555        17.0078        28.1875         1.0109         2.5436         2.5715        24.0879     
 9954.0000        12.0576         0.0300        59.2287        15.7344        27.5703         1.0588         2.5078         2.5823        24.6555     
 9954.5000        12.0580         0.0479        59.5454        14.4375        27.1875         1.1999         2.5568         2.5919        23.6975     
 9955.0000        12.0583         0.0446        61.1450        13.7936        26.7972         1.1708         2.6543         2.5912        22.8189     
 9955.5000        12.0586         0.0313        61.4461        14.1914        26.2656         0.9525         2.7732         2.5682        22.7502     
 9956.0000        12.0589         0.0259        60.7442        14.3516        25.9063         0.5987         2.9513         2.5442        23.7482     
 9956.5000        12.0593         0.0349        60.1838        13.8711        26.1641         0.1693         2.9504         2.5415        24.8348     
 9957.0000        12.0596         0.0494        59.7261        14.4023        25.8750         0.0608         2.7558         2.5650        25.3732     
 9957.5000        12.0599         0.0640        59.4556        15.7985        24.9604        -0.0142         2.3831         2.5930        24.5528     
 9958.0000        12.0602         0.0771        60.2821        18.9844        24.0234         0.0928         2.2788         2.6115        22.9620     
 9958.5000        12.0693         0.0874        61.8421        23.7344        22.1172         0.2350         2.2594         2.6177        24.3783     
 9959.0000        12.1209         0.0717        63.2502        28.8906        20.1484         1.0178         2.3366         2.5931        26.7563     
 9959.5000        12.1261         0.0567        64.2941        34.8256        18.3888         3.4808         2.5977         2.5722        41.3225     
 9960.0000        12.1021         0.0398        63.6133        38.8125        16.6484         6.4408         2.8484         2.5673        49.0086     
 9960.5000        12.0780         0.0296        60.7227        39.5156        15.9336         4.8342         2.8636         2.5955        52.5001     
 9961.0000        12.0448         0.0336        58.2069        37.6406        15.6484         2.8028         2.9864         2.6152        47.2378     
 9961.5000        11.9948         0.0400        57.5973        34.8296        15.3088         0.8232         3.2598         2.6265        42.0837     
 9962.0000        11.9813         0.0373        58.1632        32.7188        15.0391         0.5552         3.5742         2.6042        38.8948     
 9962.5000        11.9796         0.0270        59.1748        29.4219        14.5938         0.5526         3.6930         2.5563        34.8880     
 9963.0000        11.9778         0.0232        60.1561        26.1797        14.1250         0.5836         3.6717         2.5253        29.6739     
 9963.5000        11.9761         0.0346        60.9326        23.4766        13.6172         0.8205         3.6987         2.5216        26.6054     
 9964.0000        11.9743         0.0558        61.4032        20.4194        12.6514         1.0576         3.8025         2.5353        25.5734     
 9964.5000        11.9726         0.0709        61.5989        17.3555        11.7344         1.2940         3.8789         2.5476        24.7300     
 9965.0000        11.9708         0.0614        61.7489        15.2891        11.3008         1.5302         3.8125         2.5502        23.9461     
 9965.5000        11.9691         0.0453        61.6006        15.5195        11.0508         1.7639         3.7030         2.5487        23.5214     
 9966.0000        11.9674         0.0318        60.9253        15.8744        10.7575         1.9832         3.7350         2.5414        22.9681     
 9966.5000        11.9541         0.0295        60.1786        15.0859        10.4531         1.7901         3.8796         2.5409        22.1106     
 9967.0000        11.9004         0.0376        59.6790        14.0313        10.2617         1.4497         4.0129         2.5476        21.4361     
 9967.5000        11.8606         0.0460        59.3732        14.3828        10.3477         0.7864         4.0372         2.5585        21.2044     
