~Version Information Section
VERS.          2.0                                     : CWLS LOG ASCII Standard
WRAP.          NO                                      : One line per depth step
CREA.          05/10/19                                : LAS Creation Date
~Well Information Section
STRT.ft        839.0000                                : Start Depth
STOP.ft        7387.0000                               : Stop Depth
STEP.ft        0.5000                                  : Step
NULL.          -999.5000                               : Null Value
COMP.          MESA PETROLEUM U.K. LTD.                : Company
WELL.          11/30-2                                 : Well
FLD .          EXPLORATION                             : Field
LOC .          NORTH SEA                               : Location
LOC1.          -                                       : Location (UTM)
CTRY.          UK                                      : Country
PROV.          UKCS                                    : Province
UWI .          799                                     : UWI Number
API .          -                                       : API Number
SECT.          -                                       : Section
TOWN.          -                                       : Township
RNGE.          -                                       : Range
PDAT.          MSL                                     : Perm Datum
EPD .ft        0.0                                     : Elevation
LMF .          KB                                      : Log Measured From
DMF .          KB                                      : Drill Measured From
APD .ft        113.0                                   : Above Perm Datum
EKB .ft        112.0                                   : Elev-Kelly Bushing
EDF .ft        111.0                                   : Elev-Drill Floor
EGL .ft        -158.0                                  : Elev-Ground Level (Water Depth)
TDD .ft        7407.0                                  : Total Depth (Driller)
TDL .ft        7388.00                                 : Total Depth (Logger)
SRVC.          SCHLUMBERGER                            : Service Company
LATI.          58 06 30.0 N                            : Latitude
LONG.          03 06 02.0 W                            : Longitude
DATE.          NOV-DEC-1976                            : Logging Date
PROJ.          UKCS                                    : Project
SET .          COMP_WIRE                               : Set
~Curve Information Section
DEPTH.ft                                                  : Depth Curve
CALI.in                                                : Caliper BHC-FDC
CALS.in                                                : Caliper DLL
DRHO.g/cc                                              : Delta Rho
DT.us/ft                                               : Delta-T
GR.gAPI                                                : Gamma Ray ISF
GRD.gAPI                                               : Gamma Ray FDC
GRL.gAPI                                               : Gamma Ray DLL
ILD.Ohmm                                               : Deep Induction Standard Processed Resistivity
LLD.Ohmm                                               : Latero-Log Deep (Resistivity)
LLS.Ohmm                                               : Latero-Log Shallow (Resistivity)
MSFL.Ohmm                                              : Msfl Resistivity
NPHI.pu                                                : Neutron Porosity
RHOB.g/cc                                              : Bulk Density
SFLU.Ohmm                                              : SFL Resistivity (Unaveraged)
SP.mV                                                  : Spontaneous Potential ISF
SPL.mV                                                 : Spontaneous Potential  DLL
~ASCII Log Data Section
# ...
 6887.0000         8.4637         8.2645         0.0301        73.0516        32.9753        24.5608        40.7662        10.2851        13.7718        18.7497        19.8465        12.1219         2.4054        19.3459        58.7570        71.5508     
 6887.5000         8.4506         8.2402         0.0534        68.4433        34.0796        26.8423        41.2779         9.8907        18.5220        25.7401        24.1653         5.3719         2.4587        20.6806        58.5684        71.3802     
 6888.0000         8.4506         8.1750         0.0590        66.6343        26.9790        21.5319        33.3685         9.6024        22.0445        30.3828        26.1721         4.7236         2.4724        21.7343        58.3161        70.8857     
 6888.5000         8.4506         8.1652         0.0453        67.8666        18.4483        12.8244        24.9026         9.6632        21.0585        28.2050        24.9118         5.6980         2.4767        20.2111        58.0710        70.5661     
 6889.0000         8.4507         8.1652         0.0356        70.5097        13.0285         8.5189        14.3496        10.0428        14.2094        18.4567        19.6340         6.9440         2.4596        16.2753        57.9556        70.6305     
 6889.5000         8.4879         8.1662         0.0503        72.9394        11.9849         8.0309        11.8608        10.4219         8.9525        12.1043        12.2698         8.2882         2.4521        13.2346        58.0853        70.6396     
 6890.0000         8.5006         8.1849         0.0547        74.5336        16.8427         8.9702        13.5311        10.8477         8.1001        11.1140         8.9758         9.1130         2.4318        11.9319        58.3368        70.8046     
 6890.5000         8.5006         8.2506         0.0311        73.8342        19.9573        10.4159        16.0655        11.2824         8.8543        11.9277        16.7736         8.8863         2.4042        14.1556        58.5778        70.5758     
 6891.0000         8.4714         8.2400         0.0173        71.9444        21.4093        12.1415        18.6214        11.7179        12.1081        16.4970        36.5382         7.8383         2.4105        16.6010        58.6857        70.1655     
 6891.5000         8.4508         8.1741         0.0451        69.9601        20.7290        14.1254        21.1173        12.1559        18.3234        24.9973        28.7082         6.1704         2.4583        20.2736        58.5524        70.2902     
 6892.0000         8.4506         8.1652         0.0454        69.0409        18.9973        15.1743        21.5617        13.2665        22.5007        30.5447        24.6073         5.8657         2.4535        22.1762        58.3140        70.6597     
 6892.5000         8.4506         8.1652         0.0509        69.2236        16.4999        13.9342        18.4347        14.3771        23.3007        32.9699        24.8488         5.7305         2.4636        22.7170        58.1976        70.2056     
 6893.0000         8.4506         8.1652         0.0541        69.6811        14.7870        11.6523        15.1385        15.4186        24.5058        34.2471        25.1545         6.1186         2.4769        22.4386        58.2134        70.0860     
 6893.5000         8.4802         8.1667         0.0541        70.2083        14.8071        10.9444        14.3837        15.6545        24.3058        33.1718        25.3428         6.7952         2.4782        21.8971        58.3508        69.9236     
 6894.0000         8.5004         8.1817         0.0535        71.0133        16.6950        11.1508        14.8808        15.7334        23.3157        30.0776        23.9269         7.4592         2.4748        21.2147        58.6025        69.6626     
 6894.5000         8.5006         8.2257         0.0510        71.6330        19.6630        12.6492        16.1911        15.4111        21.6326        26.9411        22.2503         8.1200         2.4762        20.5442        58.8541        70.2497     
 6895.0000         8.5006         8.2590         0.0573        71.7918        22.5960        14.0851        19.6879        14.7164        20.7663        25.6967        21.0178         7.9760         2.4825        19.9876        59.0863        70.4296     
 6895.5000         8.5006         8.2623         0.0763        72.1421        25.3278        16.1695        23.3038        13.8340        22.1866        26.5692        21.4841         7.7934         2.5007        19.9087        59.1873        70.6980     
 6896.0000         8.5006         8.2623         0.0954        72.8046        25.8227        18.3969        25.7422        12.9529        24.0618        27.5273        25.4324         8.2150         2.5063        19.8299        59.1163        70.7875     
 6896.5000         8.5006         8.2623         0.0979        73.4495        23.2649        18.6412        24.8187        12.0622        24.9768        26.0788        39.8286         8.9638         2.4720        19.4803        59.0015        70.6254     
 6897.0000         8.5006         8.2599         0.0608        73.2052        21.7341        17.3851        22.2890        11.1715        24.1242        22.8605        38.1219        10.0039         2.4302        18.4859        58.9475        70.2609     
 6897.5000         8.5006         8.2401         0.0756        72.2598        21.1581        17.1834        21.4733        10.2793        20.8825        19.2034        23.7106         8.9573         2.4436        16.8894        58.9475        70.1762     
 6898.0000         8.5006         8.1960         0.0745        71.4191        19.7663        17.3168        21.1137         9.4302        17.0374        16.2589        21.1554         6.7314         2.4880        15.1150        58.9475        70.3306     
 6898.5000         8.5006         8.1678         0.0630        70.9550        17.3579        16.6278        19.6110         8.7577        13.4435        14.1105        20.9925         6.3848         2.4910        13.3175        58.9475        69.9253     
 6899.0000         8.5005         8.1652         0.0483        71.2279        15.1779        14.8610        18.4099         8.0852        11.2464        12.5191        17.5088         6.9734         2.4717        12.6234        58.9339        69.8277     
 6899.5000         8.5004         8.1716         0.0355        71.6689        13.9835        13.4836        17.3495         7.5405        10.2980        11.7835        15.3372         7.5813         2.4370        11.9284        58.8592        69.5181     
 6900.0000         8.5004         8.2116         0.0264        71.9823        14.3685        13.3472        16.3755         7.2179         9.5050        11.6676        13.9348         7.5565         2.4148        11.4246        58.7642        69.0642     
 6900.5000         8.5004         8.2575         0.0285        72.0041        15.9140        13.5966        15.6407         6.8952         9.2930        11.6712        15.3885         7.3664         2.4099        11.0083        58.7950        69.4525     
 6901.0000         8.5004         8.2622         0.0410        72.1568        17.4575        14.6806        15.5850         6.5726         9.3581        11.5471        15.0323         7.6858         2.4264        10.5740        58.9280        69.4799     
 6901.5000         8.5004         8.2622         0.0525        72.7786        18.8245        15.2413        15.9933         6.3076         9.1779        11.0355        13.7408         8.2756         2.4469        10.1317        59.0610        69.3744     
 6902.0000         8.5004         8.2622         0.0634        73.8112        19.5505        15.3048        17.4197         6.1365         8.6133        10.2134        12.0471         8.8653         2.4644         9.7546        59.1745        69.2662     
 6902.5000         8.5314         8.2662         0.0817        74.6423        21.7137        16.6442        19.3896         5.9657         7.7724         9.5457        10.1719         9.3756         2.4781         9.4351        59.1890        69.2918     
