~Version Information Section
VERS.          2.0                                     : CWLS LOG ASCII Standard
WRAP.          NO                                      : One line per depth step
CREA.          05/10/19                                : LAS Creation Date
~Well Information Section
STRT.ft        839.0000                                : Start Depth
STOP.ft        7387.0000                               : Stop Depth
STEP.ft        0.5000                                  : Step
NULL.          -999.5000                               : Null Value
COMP.          MESA PETROLEUM U.K. LTD.                : Company
WELL.          11/30-2                                 : Well
FLD .          EXPLORATION                             : Field
LOC .          NORTH SEA                               : Location
LOC1.          -                                       : Location (UTM)
CTRY.          UK                                      : Country
PROV.          UKCS                                    : Province
UWI .          799                                     : UWI Number
API .          -                                       : API Number
SECT.          -                                       : Section
TOWN.          -                                       : Township
RNGE.          -                                       : Range
PDAT.          MSL                                     : Perm Datum
EPD .ft        0.0                                     : Elevation
LMF .          KB                                      : Log Measured From
DMF .          KB                                      : Drill Measured From
APD .ft        113.0                                   : Above Perm Datum
EKB .ft        112.0                                   : Elev-Kelly Bushing
EDF .ft        111.0                                   : Elev-Drill Floor
EGL .ft        -158.0                                  : Elev-Ground Level (Water Depth)
TDD .ft        7407.0                                  : Total Depth (Driller)
TDL .ft        7388.00                                 : Total Depth (Logger)
SRVC.          SCHLUMBERGER                            : Service Company
LATI.          58 06 30.0 N                            : Latitude
LONG.          03 06 02.0 W                            : Longitude
DATE.          NOV-DEC-1976                            : Logging Date
PROJ.          UKCS                                    : Project
SET .          COMP_WIRE                               : Set
~Curve Information Section
DEPTH.ft                                                  : Depth Curve
CALI.in                                                : Caliper BHC-FDC
CALS.in                                                : Caliper DLL
DRHO.g/cc                                              : Delta Rho
DT.us/ft                                               : Delta-T
GR.gAPI                                                : Gamma Ray ISF
GRD.gAPI                                               : Gamma Ray FDC
GRL.gAPI                                               : Gamma Ray DLL
ILD.Ohmm                                               : Deep Induction Standard Processed Resistivity
LLD.Ohmm                                               : Latero-Log Deep (Resistivity)
LLS.Ohmm                                               : Latero-Log Shallow (Resistivity)
MSFL.Ohmm                                              : Msfl Resistivity
NPHI.pu                                                : Neutron Porosity
RHOB.g/cc                                              : Bulk Density
SFLU.Ohmm                                              : SFL Resistivity (Unaveraged)
SP.mV                                                  : Spontaneous Potential ISF
SPL.mV                                                 : Spontaneous Potential  DLL
~ASCII Log Data Section
# ...
 6503.0000        10.9237         9.7837         0.2388        74.9718        80.3319        66.1241        80.0238         6.7266         8.3211         7.1458         1.5876        31.3230         2.1314         4.2072        69.3362        87.5502     
 6503.5000        11.4018         9.7111         0.2155        75.0703        83.4120        67.1708        84.8797         6.5614         8.9352         7.4285         1.0071        34.4303         2.0491         4.7011        69.1602        87.4735     
 6504.0000        11.9852         9.6730         0.1982        78.5193        87.0094        69.7452        87.3228         6.5406         8.5488         6.9301         2.1445        37.1621         2.0107         4.9016        69.0059        87.3952     
 6504.5000        11.6664         9.7699         0.2102        83.1408        87.8293        71.6842        89.0255         6.5398         7.4019         5.6102         2.0617        39.8229         2.0666         4.7746        68.9421        87.3401     
 6505.0000        11.9562         9.8695         0.1953        86.7530        87.4138        72.0705        90.2296         6.5974         5.8503         4.7357         1.1332        42.1926         1.9979         4.5642        68.9636        87.3256     
 6505.5000        13.5835         9.8315         0.1784        88.2429        88.3467        70.6847        90.9513         6.6649         5.0642         4.5200         0.7942        39.7274         1.9428         4.3000        69.0637        87.3195     
 6506.0000        14.3326         9.4835         0.1597        86.1242        87.8964        67.9670        90.9040         6.7714         4.9610         4.6863         0.9878        36.6844         1.8884         4.0699        69.2620        87.5569     
 6506.5000        14.1316         9.3586         0.1621        82.7770        85.5237        66.7257        87.0596         6.8778         5.3291         5.4837         1.2013        33.6265         1.9765         4.1292        69.4880        87.5443     
 6507.0000        13.5038         9.2075         0.1829        79.2633        82.6685        66.1404        82.9518         7.0189         6.4707         6.8644         0.8328        27.0696         2.0832         4.3886        69.6344        87.4105     
 6507.5000        13.4963         9.0970         0.1908        78.1267        79.2578        65.9777        80.6238         7.1696         8.4332         8.7175         1.2704        19.5351         2.1165         4.5781        69.5993        87.4371     
 6508.0000        12.8255         9.0988         0.1786        78.4365        76.7354        64.4032        79.2353         7.2525        10.4373         9.6661         8.2773        14.9011         2.2296         4.6516        69.3436        87.5817     
 6508.5000        10.8991         9.1840         0.2067        79.0297        70.3229        59.0210        75.7626         7.6606        10.9346         9.1734        19.8797        18.2539         2.3255         5.0809        68.9859        87.7247     
 6509.0000        10.0281         9.3379         0.2253        79.4800        66.5894        53.4244        73.1768         8.4526         9.6063         8.1911        14.2150        24.3120         2.3568         5.6779        68.8171        87.9278     
 6509.5000        10.1847         9.5419         0.2059        78.5727        64.4427        50.4938        71.9406         8.8136         8.4367         7.3610         4.3201        29.1788         2.3430         5.7206        68.8436        88.1644     
 6510.0000        10.7655         9.6572         0.1776        76.6179        66.2520        54.7892        77.7159         8.7415         7.5495         6.9341         3.0108        30.4185         2.3604         5.5571        68.9868        88.3137     
 6510.5000        11.4285         9.7191         0.1977        76.9063        75.2475        63.3386        83.7275         8.1401         7.1400         6.6472         4.0998        31.4980         2.4008         5.6362        69.2520        88.4159     
 6511.0000        12.3207         9.8061         0.2325        79.1700        81.9911        68.7563        83.9679         7.3210         6.7665         6.2436         2.5435        34.7668         2.3975         5.5531        69.4856        88.5303     
 6511.5000        13.2345         9.9275         0.2370        82.8287        88.3015        70.0036        84.0883         6.7715         6.2655         6.1472         1.2285        37.1592         2.3561         5.1384        69.5670        88.3417     
 6512.0000        13.4187        10.0937         0.2277        83.4006        91.7089        70.5936        86.2127         6.2235         6.1627         6.5980         0.9727        38.1929         2.3139         4.8142        69.5082        88.1529     
 6512.5000        12.6357        10.1700         0.2021        81.9141        95.3336        70.5679        85.9286         5.8426         6.6442         6.9497         1.2326        35.7779         2.3295         4.7790        69.3943        88.2176     
 6513.0000        11.9837        10.1937         0.2101        80.4219        95.4663        69.1199        85.1032         5.5833         6.9639         6.9363         1.7780        33.6530         2.3938         4.8470        69.4293        88.3329     
 6513.5000        11.6479        10.2610         0.2285        80.4979        92.2453        66.0185        86.9637         5.4592         6.8878         6.6506         1.8442        33.0563         2.4272         4.8985        69.5385        88.5361     
 6514.0000        11.4945        10.2220         0.2213        81.6890        90.6441        64.9421        87.1268         5.5004         6.5658         6.2640         1.8837        34.6450         2.4095         4.9408        69.6095        88.5641     
 6514.5000        11.7106         9.8236         0.2110        82.5886        87.1937        64.0497        86.2789         5.6938         6.2977         5.9652         2.4582        36.7285         2.3741         4.9705        69.6707        88.5429     
 6515.0000        11.7831         9.2935         0.2162        82.9146        84.8914        63.2156        86.0441         6.0332         6.1261         5.6970         2.2471        37.9877         2.3463         4.9905        69.6578        88.4289     
 6515.5000        11.6515         9.0482         0.2307        81.7065        83.6884        62.0098        83.4665         6.4637         5.9841         5.7082         1.6606        37.0533         2.3378         5.0336        69.5651        88.4009     
 6516.0000        11.7169         9.0005         0.2429        79.4881        80.2852        60.4741        79.7402         6.9210         6.1446         6.2036         1.4024        33.6950         2.3396         5.1442        69.4478        88.2113     
 6516.5000        11.5560         8.8554         0.2367        76.3525        77.1329        59.9443        79.2229         7.3637         6.8410         7.3434         1.6261        28.8881         2.3441         5.3874        69.3088        87.6017     
 6517.0000        10.9301         8.7357         0.1856        73.5928        75.6563        60.1896        79.4671         7.7339         8.3237         9.5271         6.3059        23.9340         2.3866         5.8262        69.1090        86.9996     
 6517.5000         9.8579         8.7087         0.0709        71.1926        74.7794        60.7350        79.8364         8.1110        10.9857        12.3558        30.8759        16.7874         2.4633         6.5978        68.8612        87.0027     
 6518.0000         9.3194         8.6693         0.0195        69.0904        71.2810        58.5233        76.2801         8.6420        14.0047        13.5613        43.3620        11.8192         2.5353         7.6559        68.5679        86.8442     
 6518.5000         9.0606         8.6607         0.0345        68.1958        65.6466        53.7059        67.9842         9.3361        14.9546        12.1460        37.4945        11.5722         2.5972         8.6939        68.3565        86.3655     
