~Version Information Section
VERS.          2.0                                     : CWLS LOG ASCII Standard
WRAP.          NO                                      : One line per depth step
CREA.          05/10/19                                : LAS Creation Date
~Well Information Section
STRT.ft        839.0000                                : Start Depth
STOP.ft        7387.0000                               : Stop Depth
STEP.ft        0.5000                                  : Step
NULL.          -999.5000                               : Null Value
COMP.          MESA PETROLEUM U.K. LTD.                : Company
WELL.          11/30-2                                 : Well
FLD .          EXPLORATION                             : Field
LOC .          NORTH SEA                               : Location
LOC1.          -                                       : Location (UTM)
CTRY.          UK                                      : Country
PROV.          UKCS                                    : Province
UWI .          799                                     : UWI Number
API .          -                                       : API Number
SECT.          -                                       : Section
TOWN.          -                                       : Township
RNGE.          -                                       : Range
PDAT.          MSL                                     : Perm Datum
EPD .ft        0.0                                     : Elevation
LMF .          KB                                      : Log Measured From
DMF .          KB                                      : Drill Measured From
APD .ft        113.0                                   : Above Perm Datum
EKB .ft        112.0                                   : Elev-Kelly Bushing
EDF .ft        111.0                                   : Elev-Drill Floor
EGL .ft        -158.0                                  : Elev-Ground Level (Water Depth)
TDD .ft        7407.0                                  : Total Depth (Driller)
TDL .ft        7388.00                                 : Total Depth (Logger)
SRVC.          SCHLUMBERGER                            : Service Company
LATI.          58 06 30.0 N                            : Latitude
LONG.          03 06 02.0 W                            : Longitude
DATE.          NOV-DEC-1976                            : Logging Date
PROJ.          UKCS                                    : Project
SET .          COMP_WIRE                               : Set
~Curve Information Section
DEPTH.ft                                                  : Depth Curve
CALI.in                                                : Caliper BHC-FDC
CALS.in                                                : Caliper DLL
DRHO.g/cc                                              : Delta Rho
DT.us/ft                                               : Delta-T
GR.gAPI                                                : Gamma Ray ISF
GRD.gAPI                                               : Gamma Ray FDC
GRL.gAPI                                               : Gamma Ray DLL
ILD.Ohmm                                               : Deep Induction Standard Processed Resistivity
LLD.Ohmm                                               : Latero-Log Deep (Resistivity)
LLS.Ohmm                                               : Latero-Log Shallow (Resistivity)
MSFL.Ohmm                                              : Msfl Resistivity
NPHI.pu                                                : Neutron Porosity
RHOB.g/cc                                              : Bulk Density
SFLU.Ohmm                                              : SFL Resistivity (Unaveraged)
SP.mV                                                  : Spontaneous Potential ISF
SPL.mV                                                 : Spontaneous Potential  DLL
~ASCII Log Data Section
# ...
 7271.0000         9.6492         8.7025         0.0823        95.4772       112.1119        92.3169       108.4340         3.9498         4.2925         4.5142         2.1608        29.6354         2.4186         3.9041        62.6276        89.8192     
 7271.5000         9.3495         8.7535         0.0857        94.2666       114.7478        90.7628       108.3820         4.0451         4.4817         4.6732         2.5590        27.9861         2.4597         4.0717        62.9289        90.1477     
 7272.0000         9.2705         8.8037         0.0789        92.5845       115.1282        89.0915       109.1383         4.2129         4.6192         4.8299         2.8207        26.5994         2.5016         4.2811        63.1440        90.4291     
 7272.5000         9.2810         8.8375         0.0922        90.1407       111.0148        87.9209       107.9047         4.3808         4.7830         5.2168         2.9023        25.6935         2.5310         4.4905        63.2325        90.6155     
 7273.0000         9.2026         8.8624         0.0771        87.2398       103.8714        85.4581       104.5416         4.5432         5.0971         5.5169         3.2254        25.1205         2.5078         4.7002        63.6634        90.7762     
 7273.5000         9.2430         8.8846         0.0660        84.8853       101.4857        82.0966       100.6454         4.6072         5.5923         5.7986         3.6642        24.5848         2.4964         4.9096        63.6790        90.8125     
 7274.0000         9.3191         8.8768         0.0801        83.5757        99.3807        79.7243        98.2465         4.6711         5.9631         6.0795         3.7769        24.3888         2.5047         5.0677        63.5168        90.8194     
 7274.5000         9.3486         8.8347         0.0881        83.7045       101.2669        79.0201        95.5893         4.7575         5.9736         6.3539         3.8841        25.9876         2.5033         5.2196        63.2563        90.6960     
 7275.0000         9.3678         8.7841         0.1023        85.2458       103.0948        77.7509        96.1814         4.8790         5.5481         6.0036         3.5227        27.8662         2.4894         5.2605        63.1135        90.3207     
 7275.5000         9.3823         8.7539         0.1444        87.2828       105.5237        77.9169        95.7934         5.0765         4.8159         4.8630         3.0769        29.6911         2.4757         5.2605        63.0264        89.9393     
 7276.0000         9.3523         8.7052         0.1944        88.0915       108.3889        78.0299        96.7254         5.3332         4.9680         4.6441         2.2411        30.9308         2.4635         5.3161        63.0088        89.6965     
 7276.5000         9.5544         8.5660         0.2442        86.1391       105.6376        77.8315        97.2008         5.7591         6.3732         5.5378         1.7610        30.1456         2.4289         5.7231        63.1899        89.5134     
 7277.0000         9.9738         8.4165         0.2006        81.5413        98.6303        75.7634        96.9706         6.3226         8.8202         6.9946         2.5595        26.6493         2.3697         6.6245        63.4136        89.3374     
 7277.5000         9.6996         8.3615         0.1364        76.8423        91.4137        71.0123        92.2138         7.2594        11.0465         9.6451         4.6131        20.6779         2.4147         8.3394        63.5155        89.3655     
 7278.0000         8.9435         8.3963         0.0845        73.1663        83.5485        65.7318        83.3969         8.1950        13.5212        12.4195         9.6950        16.4655         2.4774        10.0524        63.4261        89.5330     
 7278.5000         8.7685         8.4444         0.1179        71.0785        75.2952        59.7036        69.6380         9.0400        17.4113        16.1756        14.1462        12.3934         2.5611        11.7244        63.2062        89.6222     
 7279.0000         8.8616         8.4572         0.1593        69.4518        61.3711        49.5599        58.6226         9.7637        22.5222        21.6674        11.6524         9.7664         2.5858        13.0042        62.9851        89.4312     
 7279.5000         8.9125         8.4574         0.1160        68.0926        50.5816        39.6892        49.9865        10.0747        26.5177        27.1859        18.8587         8.0412         2.5712        12.7232        62.8592        89.2122     
 7280.0000         8.9013         8.4635         0.0603        67.3637        48.0127        37.9351        44.8523         9.7589        29.0107        31.4061        34.7868         7.1944         2.5242        11.9258        62.8938        89.1019     
 7280.5000         8.7908         8.4850         0.0652        68.5890        47.8960        38.1556        42.6837         8.2992        28.9517        30.1999        58.1335         8.3311         2.5164        10.6497        63.0865        89.0944     
 7281.0000         8.7670         8.5664         0.0971        73.0208        48.1852        38.2492        43.3415         7.1117        20.5587        22.0059        37.9206        11.4708         2.5309         8.8740        63.3731        89.0064     
 7281.5000         8.8278         8.6980         0.1421        79.4883        49.9056        38.6700        48.1642         6.2270         8.2101         7.7098        19.6707        17.0987         2.5095         7.1971        63.6895        89.0254     
 7282.0000         8.9839         8.8305         0.1905        87.3939        59.1591        44.4677        63.4549         5.5561         5.6646         4.6664         7.7062        24.0373         2.4667         6.1716        63.9347        89.3935     
 7282.5000         9.2709         8.9619         0.2098        92.4409        78.0272        55.4118        74.7882         4.8852         4.0081         3.5715         2.2731        28.6603         2.4021         5.1461        64.0162        89.2884     
 7283.0000         9.5256         9.0722         0.2019        94.8144        92.0038        67.4584        86.5260         4.3307         3.4688         3.7481         1.7822        28.5390         2.3817         4.4424        63.9063        88.9942     
 7283.5000         9.7466         9.0794         0.1973        93.3473       100.1807        76.9489        93.1737         4.1444         3.9427         4.2574         1.9123        27.5999         2.3823         4.2043        63.6796        88.7676     
 7284.0000         9.9239         9.0210         0.1814        91.5954       102.7361        79.4335        94.3230         3.9148         4.4521         4.7224         2.0047        26.9252         2.3965         4.0924        63.4643        88.7538     
 7284.5000         9.6832         8.9592         0.1995        90.5741       100.5566        78.6820        92.8658         3.7156         4.6510         4.9457         1.8632        27.0258         2.4158         4.0750        63.4293        88.7640     
 7285.0000         9.8991         9.0083         0.1975        91.0612        96.1178        77.7437        91.4079         3.8374         4.6296         4.8898         1.8945        28.0450         2.3981         4.0504        63.5718        88.8342     
 7285.5000        10.4870         9.1585         0.1999        92.4656        92.9079        78.2163        89.2236         3.9591         4.5190         4.6820         2.1270        29.3201         2.4152         4.0154        63.6813        88.9380     
 7286.0000        10.6057         9.3146         0.1944        93.6544        91.8379        77.1180        86.8596         4.0015         4.4354         4.5701         1.8584        30.5643         2.4157         3.9804        63.8253        88.9817     
 7286.5000        10.3534         9.3724         0.1689        94.0971        94.4717        75.8724        87.3038         4.0163         4.4600         4.5842         1.8249        31.7838         2.4039         3.9588        64.0982        88.9886     
