~Version Information Section
VERS.          2.0                                     : CWLS LOG ASCII Standard
WRAP.          NO                                      : One line per depth step
CREA.          05/10/19                                : LAS Creation Date
~Well Information Section
STRT.ft        839.0000                                : Start Depth
STOP.ft        7387.0000                               : Stop Depth
STEP.ft        0.5000                                  : Step
NULL.          -999.5000                               : Null Value
COMP.          MESA PETROLEUM U.K. LTD.                : Company
WELL.          11/30-2                                 : Well
FLD .          EXPLORATION                             : Field
LOC .          NORTH SEA                               : Location
LOC1.          -                                       : Location (UTM)
CTRY.          UK                                      : Country
PROV.          UKCS                                    : Province
UWI .          799                                     : UWI Number
API .          -                                       : API Number
SECT.          -                                       : Section
TOWN.          -                                       : Township
RNGE.          -                                       : Range
PDAT.          MSL                                     : Perm Datum
EPD .ft        0.0                                     : Elevation
LMF .          KB                                      : Log Measured From
DMF .          KB                                      : Drill Measured From
APD .ft        113.0                                   : Above Perm Datum
EKB .ft        112.0                                   : Elev-Kelly Bushing
EDF .ft        111.0                                   : Elev-Drill Floor
EGL .ft        -158.0                                  : Elev-Ground Level (Water Depth)
TDD .ft        7407.0                                  : Total Depth (Driller)
TDL .ft        7388.00                                 : Total Depth (Logger)
SRVC.          SCHLUMBERGER                            : Service Company
LATI.          58 06 30.0 N                            : Latitude
LONG.          03 06 02.0 W                            : Longitude
DATE.          NOV-DEC-1976                            : Logging Date
PROJ.          UKCS                                    : Project
SET .          COMP_WIRE                               : Set
~Curve Information Section
DEPTH.ft                                                  : Depth Curve
CALI.in                                                : Caliper BHC-FDC
CALS.in                                                : Caliper DLL
DRHO.g/cc                                              : Delta Rho
DT.us/ft                                               : Delta-T
GR.gAPI                                                : Gamma Ray ISF
GRD.gAPI                                               : Gamma Ray FDC
GRL.gAPI                                               : Gamma Ray DLL
ILD.Ohmm                                               : Deep Induction Standard Processed Resistivity
LLD.Ohmm                                               : Latero-Log Deep (Resistivity)
LLS.Ohmm                                               : Latero-Log Shallow (Resistivity)
MSFL.Ohmm                                              : Msfl Resistivity
NPHI.pu                                                : Neutron Porosity
RHOB.g/cc                                              : Bulk Density
SFLU.Ohmm                                              : SFL Resistivity (Unaveraged)
SP.mV                                                  : Spontaneous Potential ISF
SPL.mV                                                 : Spontaneous Potential  DLL
~ASCII Log Data Section
# ...
 6359.0000         8.5555         8.3310         0.0091        71.9074        15.1238        10.4333        15.7989       168.1822       195.3784        64.6474         8.2494        12.3732         2.3125        26.1291        54.9513        68.7431     
 6359.5000         8.5945         8.3310         0.0125        71.7953        15.1248        10.5393        15.5018       182.4572       262.5257        78.0539         8.0874        12.3820         2.3188        27.3919        54.9842        68.6033     
 6360.0000         8.5940         8.3109         0.0344        71.7512        15.1258        10.5577        15.2956       200.6412       323.5410        85.0496         7.9086        12.1953         2.3397        27.8193        55.0138        68.7096     
 6360.5000         8.5553         8.2878         0.0337        71.6822        15.1269        10.1401        15.0289       219.1476       348.9236        86.0505         7.4888        11.8629         2.3435        27.3920        54.9460        68.5628     
 6361.0000         8.5567         8.3041         0.0433        71.4717        14.1226        10.0593        14.7520       229.8352       366.5178        87.3302         7.3623        11.8096         2.3391        27.0133        54.8546        68.5901     
 6361.5000         8.5882         8.3042         0.0382        71.1608        13.6908        10.1266        14.6318       225.4520       378.8077        91.4341         8.9038        12.0289         2.3405        26.9314        54.8962        68.7146     
 6362.0000         8.5621         8.3096         0.0447        70.9219        13.6918        10.3124        14.3450       206.7765       384.9497        96.0857         9.8169        12.3834         2.3369        26.6771        55.0920        69.0544     
 6362.5000         8.5879         8.3274         0.0377        70.8081        14.4568        10.4983        14.1009       188.0861       388.0274       101.6316         9.8039        12.2962         2.3286        26.0636        55.3080        69.3084     
 6363.0000         8.5624         8.3310         0.0294        70.8426        15.6115        10.5505        14.0746       175.7205       380.4666       103.8539         9.3129        11.8481         2.3217        25.4334        55.4610        68.7636     
 6363.5000         8.5875         8.3310         0.0236        71.0330        15.3729        10.3962        14.2440       172.4380       352.9780        99.2498         8.6964        11.7588         2.3086        25.0963        55.5870        68.6452     
 6364.0000         8.5542         8.3301         0.0280        71.3438        15.3739        10.8749        14.4214       172.8444       319.1208        94.4002         8.2130        12.0826         2.3165        24.8506        55.6378        68.6183     
 6364.5000         8.5500         8.3051         0.0443        71.7299        15.5285        11.7467        14.7398       175.6429       283.5734        91.1371         8.5134        12.2944         2.3377        24.7762        55.5639        68.4143     
 6365.0000         8.5500         8.3126         0.0306        72.0443        14.8966        11.9840        15.1281       181.7948       256.1029        87.9642         8.8368        12.3725         2.3402        24.7018        55.4765        67.9230     
 6365.5000         8.5500         8.3290         0.0398        72.2987        14.9390        11.9874        15.5767       182.1595       235.6758        83.4381         8.8798        12.5436         2.3442        24.6911        55.4903        67.6996     
 6366.0000         8.5500         8.3310         0.0354        72.5246        15.1384        11.9327        15.6625       182.8197       210.8918        78.8680         8.8544        12.6606         2.3352        24.8030        55.6309        67.6726     
 6366.5000         8.5500         8.3310         0.0344        72.6479        15.4190        11.6087        14.8266       182.7585       196.7691        75.5232         8.3352        12.8148         2.3252        24.8363        55.8583        67.8526     
 6367.0000         8.5547         8.3310         0.0495        72.6995        15.6199        10.9680        13.8080       172.9147       185.4793        71.8039         8.0202        12.7158         2.3344        24.7199        56.1101        67.7983     
 6367.5000         8.5941         8.3310         0.0475        72.8643        15.6209        11.5350        13.6945       153.4359       176.0089        65.9829         8.5737        12.7557         2.3502        24.4143        56.3617        67.6667     
 6368.0000         8.6000         8.3310         0.0424        73.1978        15.6220        12.5371        13.8668       132.7679       156.8572        59.6155         9.1530        12.9432         2.3496        23.7469        56.4892        67.6247     
 6368.5000         8.6000         8.3310         0.0433        73.6756        15.1437        12.7016        13.7613       111.4132       133.6611        54.3415         8.8655        13.0188         2.3464        22.7991        56.4317        67.5785     
 6369.0000         8.5942         8.3310         0.0443        74.1354        15.1447        12.5118        13.8922        99.6341       115.5637        50.7036         8.6685        13.0607         2.3399        21.7555        56.3057        67.4631     
 6369.5000         8.5554         8.3310         0.0311        74.4594        15.1457        11.9173        14.5569        88.7258       103.7955        47.9155         9.7321        12.6530         2.3310        20.8257        56.2658        66.8676     
 6370.0000         8.5565         8.3310         0.0286        74.6757        15.1468        12.6599        15.6962        77.8089        94.0471        45.6439        10.6680        12.1343         2.3404        19.9650        56.3486        66.9174     
 6370.5000         8.5949         8.3280         0.0365        74.7339        14.9082        12.2506        16.6431        70.4680        88.7110        43.1482        10.9385        11.9506         2.3430        19.2072        56.5183        66.9245     
 6371.0000         8.5930         8.2983         0.0225        74.7596        15.2185        12.0018        16.9493        65.8658        83.7905        40.5730        11.7860        12.1504         2.3263        18.6806        56.6605        66.7497     
 6371.5000         8.5548         8.2880         0.0217        74.7833        16.3827        12.4163        17.4204        61.2599        80.1347        38.4045        13.0478        12.5338         2.3145        17.9734        56.7461        66.6292     
 6372.0000         8.5500         8.3164         0.0153        74.9376        17.0679        13.1987        18.2531        58.5018        76.7177        36.8272        13.6405        13.1798         2.3178        17.8416        56.7614        66.1986     
 6372.5000         8.5580         8.3298         0.0245        75.2360        19.4985        14.8727        19.8590        56.4160        73.8777        35.7003        14.6333        13.4933         2.3314        17.7497        56.5828        65.9332     
 6373.0000         8.5875         8.3310         0.0400        75.6867        20.4574        16.2922        21.5689        55.0378        71.2328        34.3333        14.2248        13.6872         2.3511        17.6046        56.2433        65.6556     
 6373.5000         8.5541         8.3310         0.0422        76.0018        20.8740        16.8045        22.3885        53.5168        68.6121        32.9283        13.7052        13.6792         2.3584        17.2982        56.0059        65.3444     
 6374.0000         8.5534         8.3309         0.0277        76.2880        20.6670        17.1849        22.5756        51.7771        66.1243        31.8969        13.6610        13.5725         2.3479        17.0013        55.9985        65.4946     
 6374.5000         8.5898         8.3309         0.0335        76.4981        20.2620        17.3632        22.0818        49.9664        63.6400        30.7609        15.0954        13.5636         2.3489        16.8120        56.1543        65.8117     
