~Version Information Section
VERS.          2.0                                     : CWLS LOG ASCII Standard
WRAP.          NO                                      : One line per depth step
CREA.          04/05/19                                : LAS Creation Date
~Well Information Section
STRT.ft        269.0000                                : Start Depth
STOP.ft        10060.0000                              : Stop Depth
STEP.ft        0.5000                                  : Step
NULL.          -999.2500                               : Null Value
COMP.          BRITOIL                                 : Company
WELL.          11/30a-9                                : Well
FLD .          BEATRICE                                : Field
LOC .          NORTH SEA                               : Location
LOC1.          6439409.78mN 491059.29mE                : Location (UTM) 
CTRY.          UK                                      : Country
PROV.          UKCS                                    : Province
UWI .          7462                                    : UWI Number
API .          -                                       : API Number
SECT.          -                                       : Section
TOWN.          -                                       : Township
RNGE.          -                                       : Range
PDAT.          MSL                                     : Perm Datum
EPD .ft        0.0                                     : Elevation
LMF .          RKB                                     : Log Measured From
DMF .          RKB                                     : Drill Measured From
APD .ft        102.0                                   : Above Perm Datum
EKB .ft        102.0                                   : Elev-Kelly Bushing
EDF .ft        101.0                                   : Elev-Drill Floor
EGL .ft        -173                                    : Elev-Ground Level (Water Depth)
TDD .ft        10060.00                                : Total Depth (Driller)
TDL .ft        10060.00                                : Total Depth (Logger)
SRVC.          SCHLUMBERGER                            : Service Company
LATI.          58 05 40.910 N                          : Latitude
LONG.          03 09 05.942 W                          : Longitude
DATE.          JUL-SEP-1983                            : Logging Date
PROJ.          UKCS                                    : Project
SET .          COMP WIRE                               : Set
~Curve Information Section
DEPTH.ft                                               : Depth Curve
CALI.in                                                : Density Caliper
DRHO.g/cc                                              : Density correction
DT.us/ft                                               : Delta-T
GR.gAPI                                                : Gamma Ray
ILD.ohmm                                               : Deep Induction Standard Processed Resistivity
NPHI.pu                                                : Neutron Porosity
PEF.b/e                                                : Photo-Electric Factor
RHOB.g/cc                                              : Bulk Density
SGR.gAPI                                               : Spectral Gamma Ray
~ASCII Log Data Section
# ...
 9093.5000        13.3782         0.0286        77.9883        66.8429         4.7307        18.9627         2.8245         2.6793        82.8114     
 9094.0000        13.3782         0.0352        77.4780        68.4375         4.5547        18.1326         2.8128         2.6822        83.5862     
 9094.5000        13.3782         0.0577        76.0508        72.6875         4.5352        19.8094         2.7076         2.7039        82.4764     
 9095.0000        13.3782         0.0637        74.1376        75.7188         4.5430        20.9477         2.5719         2.7227        81.6927     
 9095.5000        13.3782         0.0686        72.4399        75.2813         4.5684        20.7756         2.5675         2.7273        81.7711     
 9096.0000        13.3786         0.0698        71.2855        73.8732         4.5957        18.6017         2.8023         2.7331        81.0767     
 9096.5000        13.3930         0.0662        70.8821        74.9063         4.6074        16.7798         3.4110         2.7483        77.8775     
 9097.0000        13.4258         0.0584        71.2379        77.9375         4.7031        16.8858         4.1305         2.7764        73.3628     
 9097.5000        13.4168         0.0506        72.0920        79.5313         4.8672        16.8852         4.4236         2.7889        70.3471     
 9098.0000        13.3874         0.0462        73.2337        79.7805         5.0842        16.7768         4.2432         2.7967        69.8210     
 9098.5000        13.3782         0.0551        74.6175        78.7813         5.1895        16.2743         4.1035         2.7772        73.1585     
 9099.0000        13.3782         0.0647        76.0862        76.2500         5.1094        15.8030         4.2720         2.7577        73.7575     
 9099.5000        13.3782         0.0666        77.1155        73.5000         5.0742        16.0396         4.4024         2.7383        73.6212     
 9100.0000        13.3781         0.0641        77.3973        72.3132         5.0840        17.2612         4.3926         2.7283        74.0638     
 9100.5000        13.3783         0.0602        77.2392        74.7188         5.0879        19.0814         4.1425         2.7227        77.2091     
 9101.0000        13.3823         0.0556        77.0449        77.7188         5.1133        20.1335         3.4647         2.7171        82.4271     
 9101.5000        13.3775         0.0598        76.9046        76.4688         5.1680        19.9926         2.9514         2.7120        84.9960     
 9102.0000        13.3617         0.0685        76.8278        73.2188         5.2188        18.9768         2.8876         2.7256        87.4481     
 9102.5000        13.3629         0.0726        76.8284        68.9649         5.2754        18.1140         2.9595         2.7440        84.7100     
 9103.0000        13.3744         0.0644        76.8359        66.0938         5.3398        18.2213         3.0545         2.7806        84.8439     
 9103.5000        13.3781         0.0437        76.7652        64.0000         5.3906        18.8519         3.2448         2.7922        84.6151     
 9104.0000        13.3781         0.0328        76.3251        63.8438         5.4199        19.0675         3.5332         2.8031        87.3507     
 9104.5000        13.3781         0.0354        75.3300        65.5629         5.4219        18.1843         3.6171         2.7887        87.4046     
 9105.0000        13.3781         0.0422        74.1367        67.0313         5.4199        16.6705         3.7267         2.7686        85.9878     
 9105.5000        13.3781         0.0511        72.6482        68.2188         5.4297        15.2873         3.5780         2.7487        85.2025     
 9106.0000        13.3781         0.0571        70.2542        69.0938         5.4375        14.3396         3.5016         2.7415        83.4377     
 9106.5000        13.3781         0.0602        67.1605        70.2496         5.4726        14.0741         3.3239         2.7413        83.0618     
 9107.0000        13.3712         0.0602        64.7049        72.5313         5.7109        14.5373         3.0041         2.7405        79.9328     
 9107.5000        13.3484         0.0566        63.3559        75.6875         5.8281        15.9007         2.9122         2.7385        75.3931     
 9108.0000        13.3475         0.0521        63.4653        77.4375         6.1211        17.5944         3.0172         2.7369        66.8289     
 9108.5000        13.3875         0.0454        65.2320        76.9688         6.6621        18.5476         3.3473         2.7438        59.2419     
 9109.0000        13.3670         0.0480        67.6638        76.1567         6.7205        17.5752         3.7133         2.7494        54.8469     
 9109.5000        13.2982         0.0506        69.5881        78.9375         6.4961        14.5196         3.8931         2.7562        50.9904     
 9110.0000        13.2844         0.0527        71.0940        82.5625         6.2539        11.0190         3.9538         2.7650        49.4516     
 9110.5000        13.2844         0.0526        72.3117        83.2188         6.0352         8.4741         3.9697         2.7759        48.4466     
 9111.0000        13.2844         0.0517        73.4542        77.6794         5.8377         7.8768         3.9355         2.7849        50.7242     
 9111.5000        13.2844         0.0506        74.6627        72.1875         5.6738         7.9908         3.8884         2.7920        53.1974     
 9112.0000        13.2844         0.0537        75.5928        72.9063         5.5313         8.3070         3.9569         2.7918        53.5067     
 9112.5000        13.2844         0.0633        75.9862        75.3125         5.3809         8.6093         4.2043         2.7905        57.1754     
 9113.0000        13.2845         0.0766        76.3078        76.8433         5.2247        10.5966         4.2475         2.8029        64.7755     
 9113.5000        13.2916         0.0794        76.8813        75.8750         5.0938        14.9381         3.8518         2.8092        76.1260     
 9114.0000        13.2774         0.0689        77.4650        75.4688         5.0156        19.0392         3.2939         2.7995        85.0524     
 9114.5000        13.2689         0.0583        77.8167        76.9063         4.9434        21.9677         2.9896         2.7775        89.2414     
 9115.0000        13.3209         0.0478        77.9421        79.5000         4.8730        22.6150         2.8688         2.7543        91.5258     
 9115.5000        13.4772         0.0392        78.0091        83.8788         4.8379        22.7232         2.7156         2.7336        93.0277     
 9116.0000        13.5188         0.0358        78.1293        86.0625         4.8281        23.0932         2.6305         2.7029        93.9871     
 9116.5000        13.5232         0.0305        78.2785        84.1875         4.8320        23.2092         2.6815         2.6941        92.6431     
 9117.0000        13.4952         0.0266        78.4384        82.1563         4.8359        22.5246         2.8017         2.6942        90.4126     
 9117.5000        13.4595         0.0251        78.6568        79.1833         4.8438        21.6967         2.8001         2.6980        87.8813     
 9118.0000        13.4408         0.0251        78.7749        76.2188         4.7656        21.5026         2.7534         2.7010        85.7027     
 9118.5000        13.4718         0.0251        78.7453        72.6875         4.8418        21.6797         2.5722         2.7044        84.1651     
 9119.0000        13.4718         0.0276        78.7639        70.3750         5.1348        21.5548         2.5387         2.7082        84.3736     
 9119.5000        13.4718         0.0348        78.7253        70.5948         5.2227        20.9295         2.6803         2.7118        85.0968     
