~Version Information Section
VERS.          2.0                                     : CWLS LOG ASCII Standard
WRAP.          NO                                      : One line per depth step
CREA.          04/05/19                                : LAS Creation Date
~Well Information Section
STRT.ft        269.0000                                : Start Depth
STOP.ft        10060.0000                              : Stop Depth
STEP.ft        0.5000                                  : Step
NULL.          -999.2500                               : Null Value
COMP.          BRITOIL                                 : Company
WELL.          11/30a-9                                : Well
FLD .          BEATRICE                                : Field
LOC .          NORTH SEA                               : Location
LOC1.          6439409.78mN 491059.29mE                : Location (UTM) 
CTRY.          UK                                      : Country
PROV.          UKCS                                    : Province
UWI .          7462                                    : UWI Number
API .          -                                       : API Number
SECT.          -                                       : Section
TOWN.          -                                       : Township
RNGE.          -                                       : Range
PDAT.          MSL                                     : Perm Datum
EPD .ft        0.0                                     : Elevation
LMF .          RKB                                     : Log Measured From
DMF .          RKB                                     : Drill Measured From
APD .ft        102.0                                   : Above Perm Datum
EKB .ft        102.0                                   : Elev-Kelly Bushing
EDF .ft        101.0                                   : Elev-Drill Floor
EGL .ft        -173                                    : Elev-Ground Level (Water Depth)
TDD .ft        10060.00                                : Total Depth (Driller)
TDL .ft        10060.00                                : Total Depth (Logger)
SRVC.          SCHLUMBERGER                            : Service Company
LATI.          58 05 40.910 N                          : Latitude
LONG.          03 09 05.942 W                          : Longitude
DATE.          JUL-SEP-1983                            : Logging Date
PROJ.          UKCS                                    : Project
SET .          COMP WIRE                               : Set
~Curve Information Section
DEPTH.ft                                               : Depth Curve
CALI.in                                                : Density Caliper
DRHO.g/cc                                              : Density correction
DT.us/ft                                               : Delta-T
GR.gAPI                                                : Gamma Ray
ILD.ohmm                                               : Deep Induction Standard Processed Resistivity
NPHI.pu                                                : Neutron Porosity
PEF.b/e                                                : Photo-Electric Factor
RHOB.g/cc                                              : Bulk Density
SGR.gAPI                                               : Spectral Gamma Ray
~ASCII Log Data Section
# ...
 9332.0000        12.6514         0.0471        71.0141        77.4063         8.6172        15.9980         2.5330         2.8467        86.1062     
 9332.5000        12.6515         0.0483        71.7650        82.6297         8.2107        15.5697         2.7892         2.7147        87.2386     
 9333.0000        12.6583         0.0502        72.0439        85.1250         8.0195        15.0412         2.5414         2.6836        85.1380     
 9333.5000        12.7239         0.0516        72.1797        80.7813         8.0039        15.8005         2.5471         2.6786        85.9007     
 9334.0000        12.7378         0.0527        72.3904        71.0000         8.1055        19.0558         2.5172         2.6749        85.8481     
 9334.5000        12.7380         0.0536        72.5859        61.8072         8.1953        22.3672         2.5800         2.6738        86.9086     
 9335.0000        12.7784         0.0527        73.7275        58.5781         8.2383        25.6041         2.6687         2.6693        86.3059     
 9335.5000        12.7912         0.0509        78.4652        60.5156         8.2695        27.2704         2.9024         2.6655        83.0651     
 9336.0000        12.8040         0.0478        84.6509        63.1719         8.3086        27.4514         3.6810         2.7020        77.6096     
 9336.5000        12.8273         0.0347        88.4389        66.1995         8.3828        28.3875         3.2980         2.7543        72.1481     
 9337.0000        12.8943         0.0212        88.4459        69.1563         8.3867        33.2890         2.7559         2.6763        71.6247     
 9337.5000        12.9733         0.0083        86.4618        73.6563         8.2227        39.0845         2.3090         2.5337        71.5031     
 9338.0000        12.9867         0.0007        83.7711        78.5625         7.9844        43.9544         2.1955         2.4318        71.8250     
 9338.5000        12.9947         0.0060        80.1613        82.5000         7.8281        44.8128         2.0872         2.4705        68.8393     
 9339.0000        13.0002         0.0117        76.6619        86.8149         7.7676        44.1985         2.0133         2.5326        71.3089     
 9339.5000        13.0058         0.0143        74.4926        90.6250         7.7559        42.8520         1.9828         2.5723        75.2755     
 9340.0000        13.0131         0.0144        74.6123        93.5938         7.0059        41.7125         2.0444         2.5841        77.7214     
 9340.5000        13.0203         0.0107        76.8501        92.7188         5.4766        41.1947         2.1537         2.5823        76.0762     
 9341.0000        13.0203         0.0080        80.0046        86.8055         4.6855        40.4308         2.2495         2.5749        69.0134     
 9341.5000        13.0204         0.0115        83.1010        79.9063         4.4219        36.9923         2.3452         2.5620        64.2980     
 9342.0000        13.0205         0.0136        85.6652        77.9063         4.1348        32.8909         2.4526         2.5948        64.2990     
 9342.5000        13.0313         0.0125        87.7612        82.0000         4.1602        28.9963         2.5715         2.6561        66.6105     
 9343.0000        13.0771         0.0147        89.6272        86.9977         4.2889        27.3215         2.6906         2.6509        69.1054     
 9343.5000        13.1044         0.0303        90.6674        87.6563         4.4199        28.2232         2.8094         2.5392        67.8298     
 9344.0000        13.1140         0.0582        91.1779        87.6875         4.6758        30.0784         2.6815         2.5015        73.4120     
 9344.5000        13.1149         0.0615        92.3236        89.8750         5.3027        31.8343         2.3317         2.3804        83.2150     
 9345.0000        13.1150         0.0388        93.9634        93.7813         6.0977        32.6076         1.9815         2.2400        92.8860     
 9345.5000        13.1151         0.0153        95.1647        93.6520         6.7113        38.2168         1.9105         2.1640        93.0674     
 9346.0000        13.1152         0.0113        95.1672        89.1250         7.0352        43.1757         2.0187         2.1028        94.5434     
 9346.5000        13.1154         0.0096        95.5673        87.3438         7.3809        42.5459         2.0702         2.1221       100.3317     
 9347.0000        13.1155         0.0081        91.4198        87.1250         7.8047        41.7838         2.0431         2.1392       105.2164     
 9347.5000        13.1156         0.0086        91.4356        85.3727         8.0392        42.2612         1.9396         2.1474       106.3402     
 9348.0000        13.1157         0.0093        98.6498        78.7188         8.2383        42.9080         1.7377         2.1548       104.2451     
 9348.5000        13.1158         0.0086       102.9842        71.1563         8.3711        41.4777         1.4074         2.2059        86.6846     
 9349.0000        13.1072         0.0036       106.1894        65.1250         8.4531        39.5434         0.9809         1.9455        60.5400     
 9349.5000        13.3541        -0.0010       111.3423        58.8791         8.8783        37.5840         0.9448         1.7959        38.2424     
 9350.0000        13.5836        -0.0041       114.1522        51.6875         9.6406        39.8731         0.9746         1.5817        31.9506     
 9350.5000        13.5896        -0.0069       115.6247        43.1094        10.2773        46.3274         1.0219         1.5309        32.0805     
 9351.0000        13.5865        -0.0064       117.4717        35.5469        10.5313        48.6717         1.0331         1.5404        34.7462     
 9351.5000        13.5834         0.0020       119.9323        29.8047        10.5313        49.4781         1.0444         1.5551        40.2813     
 9352.0000        13.5803         0.0038       121.4217        28.0396        10.4843        49.7884         1.0541         1.5645        44.4813     
 9352.5000        13.5773         0.0026       120.5920        27.7266        14.9805        52.9656         1.0955         1.5698        44.5478     
 9353.0000        13.5752         0.0028       117.1014        29.7891        23.5234        49.3744         1.2917         1.7155        47.4823     
 9353.5000        13.6801         0.0052       111.8752        40.2813        23.7656        50.0179         1.6388         1.9506        48.1999     
 9354.0000        13.5679         0.0075       106.7168        55.9971        17.9108        50.0660         2.0333         2.3041        47.5124     
 9354.5000        13.4438         0.0108       102.0875        70.5938        14.9844        44.3636         2.0856         2.5626        55.7198     
 9355.0000        13.3930         0.0138        97.4500        79.5625        13.6250        38.9880         2.0988         2.4685        73.4844     
 9355.5000        13.3422         0.0092        92.6733        82.7188        12.8672        43.1413         1.9701         2.3591        86.1513     
 9356.0000        13.2977         0.0067        87.7015        83.0633        11.9464        47.5136         1.8571         2.2181        86.1506     
 9356.5000        13.2541         0.0055        83.5013        79.4688        11.0547        50.8269         1.6885         2.0936        83.0090     
 9357.0000        13.0895         0.0073        80.5338        76.4688        10.8945        52.2633         1.6361         1.9764        81.2423     
 9357.5000        13.0314         0.0063        78.7938        75.6563        11.1680        52.2408         1.6042         1.9353        81.9133     
 9358.0000        13.0273         0.0047        77.9220        76.6250        11.5195        52.1435         1.5803         1.9364        83.1127     
