~Version Information Section
VERS.          2.0                                     : CWLS LOG ASCII Standard
WRAP.          NO                                      : One line per depth step
CREA.          04/05/19                                : LAS Creation Date
~Well Information Section
STRT.ft        269.0000                                : Start Depth
STOP.ft        10060.0000                              : Stop Depth
STEP.ft        0.5000                                  : Step
NULL.          -999.2500                               : Null Value
COMP.          BRITOIL                                 : Company
WELL.          11/30a-9                                : Well
FLD .          BEATRICE                                : Field
LOC .          NORTH SEA                               : Location
LOC1.          6439409.78mN 491059.29mE                : Location (UTM) 
CTRY.          UK                                      : Country
PROV.          UKCS                                    : Province
UWI .          7462                                    : UWI Number
API .          -                                       : API Number
SECT.          -                                       : Section
TOWN.          -                                       : Township
RNGE.          -                                       : Range
PDAT.          MSL                                     : Perm Datum
EPD .ft        0.0                                     : Elevation
LMF .          RKB                                     : Log Measured From
DMF .          RKB                                     : Drill Measured From
APD .ft        102.0                                   : Above Perm Datum
EKB .ft        102.0                                   : Elev-Kelly Bushing
EDF .ft        101.0                                   : Elev-Drill Floor
EGL .ft        -173                                    : Elev-Ground Level (Water Depth)
TDD .ft        10060.00                                : Total Depth (Driller)
TDL .ft        10060.00                                : Total Depth (Logger)
SRVC.          SCHLUMBERGER                            : Service Company
LATI.          58 05 40.910 N                          : Latitude
LONG.          03 09 05.942 W                          : Longitude
DATE.          JUL-SEP-1983                            : Logging Date
PROJ.          UKCS                                    : Project
SET .          COMP WIRE                               : Set
~Curve Information Section
DEPTH.ft                                               : Depth Curve
CALI.in                                                : Density Caliper
DRHO.g/cc                                              : Density correction
DT.us/ft                                               : Delta-T
GR.gAPI                                                : Gamma Ray
ILD.ohmm                                               : Deep Induction Standard Processed Resistivity
NPHI.pu                                                : Neutron Porosity
PEF.b/e                                                : Photo-Electric Factor
RHOB.g/cc                                              : Bulk Density
SGR.gAPI                                               : Spectral Gamma Ray
~ASCII Log Data Section
# ...
 9411.5000        13.8105         0.0375        81.1756        94.4063         4.8359        28.7952         2.2114         2.6367       103.6049     
 9412.0000        13.8057         0.0445        81.5999        94.9688         4.8008        32.0981         2.4173         2.6397       104.9460     
 9412.5000        13.7881         0.0476        81.8492        94.5034         4.7695        37.1195         2.7447         2.6330       106.1894     
 9413.0000        13.9363         0.0481        82.1692        91.1563         4.7441        38.4196         3.0044         2.6501       104.8735     
 9413.5000        14.0201         0.0533        82.6090        85.9063         4.7305        37.0379         3.0205         2.6803       100.5852     
 9414.0000        13.9690         0.0633        83.0082        80.4688         4.7305        35.3080         2.7901         2.7058        95.5058     
 9414.5000        13.9566         0.0608        83.1790        77.9375         4.7305        33.4877         2.6200         2.7124        92.3119     
 9415.0000        13.9565         0.0528        83.0010        76.4369         4.6894        34.0345         2.5802         2.7151        90.7648     
 9415.5000        13.9662         0.0448        82.5248        75.4375         4.6191        32.9752         2.6177         2.7055        90.2115     
 9416.0000        13.9814         0.0368        82.2259        73.7188         4.5586        34.9589         2.6932         2.7073        89.8111     
 9416.5000        13.9944         0.0288        82.0090        75.5313         4.5176        35.3471         2.8691         2.7186        89.0717     
 9417.0000        13.9695         0.0214        81.3965        81.7553         4.4843        34.5775         2.8468         2.7300        87.7376     
 9417.5000        13.9437         0.0106        81.2500        88.4375         4.4492        34.7033         2.6635         2.7276        86.7686     
 9418.0000        13.9166         0.0085        82.1643        90.7500         4.4141        35.8579         2.3667         2.6571        86.8521     
 9418.5000        13.8047         0.0094        84.1973        89.4688         4.3730        35.3331         2.2137         2.6327        86.3595     
 9419.0000        13.7884         0.0127        83.8676        88.2516         4.3438        34.8006         2.1541         2.6848        89.9155     
 9419.5000        13.7806         0.0053        81.3379        87.2188         4.3379        34.4514         2.1755         2.7232        91.8406     
 9420.0000        13.7728        -0.0055        80.0429        87.3125         4.3516        34.6468         2.1296         2.7510        93.7919     
 9420.5000        13.7648        -0.0137        79.7087        87.6563         4.3711        33.4127         2.1193         2.7750        92.7172     
 9421.0000        13.7568        -0.0203        79.1283        87.5625         4.4316        33.8016         2.1755         2.7821        92.3467     
 9421.5000        13.7488        -0.0193        78.4632        85.9354         4.5568        35.3722         2.4438         2.7837        94.5385     
 9422.0000        13.7407        -0.0168        78.6437        84.6563         4.7129        34.8680         2.5384         2.7813        96.4352     
 9422.5000        13.7136        -0.0139        79.2103        84.5938         4.8457        32.6887         2.6337         2.7674        98.1749     
 9423.0000        13.6382        -0.0091        79.2526        84.3750         4.9355        31.9952         2.8884         2.7050        96.2224     
 9423.5000        13.5757         0.0024        78.9053        83.6866         4.9864        32.1819         3.3082         2.6423        93.0239     
 9424.0000        13.5747         0.0302        78.3041        85.3438         5.0117        32.1063         3.6981         2.6260        90.7250     
 9424.5000        13.5746         0.0565        77.8160        88.3438         5.0313        31.0906         3.7502         2.6404        93.3182     
 9425.0000        13.5745         0.0683        77.7077        89.6875         5.0371        29.9720         3.5584         2.6299        96.4653     
 9425.5000        13.5753         0.0723        78.2089        88.9084         5.0352        28.8500         3.2753         2.6180        96.5442     
 9426.0000        13.5801         0.0694        79.2785        86.9063         5.0156        27.8968         2.9759         2.6121        96.3342     
 9426.5000        13.5853         0.0615        80.3177        85.8750         4.9863        29.0214         2.7600         2.6102        96.1298     
 9427.0000        13.5905         0.0491        81.0849        85.6250         4.9824        30.9097         2.4770         2.6096        99.8569     
 9427.5000        13.5747         0.0302        81.7171        87.1563         5.0098        33.0626         2.2675         2.6133       100.3254     
 9428.0000        13.5168         0.0194        82.1207        86.7784         5.0449        35.6112         2.2511         2.6192       101.6049     
 9428.5000        13.4592         0.0127        82.2257        82.9375         5.0723        38.4241         2.3278         2.6295        97.6098     
 9429.0000        13.4408         0.0070        82.1084        77.5938         5.1211        40.2214         2.2529         2.6421        93.0041     
 9429.5000        13.4533         0.0078        81.7108        74.0000         5.2188        39.8481         2.1356         2.6539        90.6401     
 9430.0000        13.4659         0.0123        80.9190        74.8143         5.3399        38.0127         2.1959         2.6660        92.9968     
 9430.5000        13.4785         0.0130        79.8854        78.0000         5.4570        36.5324         2.3703         2.6792        96.4599     
 9431.0000        13.4911         0.0134        78.8572        80.3438         5.5723        34.8931         2.4094         2.6926        94.1926     
 9431.5000        13.4409         0.0121        78.0920        80.6563         5.6875        31.0158         2.1390         2.6936        90.8347     
 9432.0000        13.3774         0.0106        77.6160        80.2195         5.7831        24.6580         1.7781         2.6638        88.8065     
 9432.5000        13.3139         0.0112        76.8109        80.4063         5.8555        19.2199         1.5681         2.6331        88.5588     
 9433.0000        13.2505         0.0115        75.2405        81.6250         5.9199        14.3307         1.5452         2.6005        89.9977     
 9433.5000        13.1871         0.0115        73.4656        85.0625         5.9648        13.3107         1.5215         2.5695        91.1069     
 9434.0000        13.1410         0.0114        72.3242        90.0000         5.9766        12.8221         1.5255         2.5540        85.8459     
 9434.5000        13.1001         0.0106        71.9143        91.8434         5.9766        12.4225         1.5309         2.5501        77.8741     
 9435.0000        13.0602         0.0098        71.4166        88.6563         5.9766        12.1911         1.5762         2.5471        74.0967     
 9435.5000        13.0560         0.0086        70.3268        81.0313         5.9863        11.6446         1.6139         2.5435        71.9806     
 9436.0000        13.0603         0.0072        69.2977        70.1094         6.1055        10.1731         1.6846         2.5374        70.1058     
 9436.5000        13.0646         0.0068        68.6519        58.9766         6.5102         8.7175         1.8843         2.5326        62.3224     
 9437.0000        13.0688         0.0080        68.0207        50.9375         7.0820         7.5326         2.1966         2.5309        50.7547     
 9437.5000        12.9399         0.0108        67.4023        47.2031         7.4727         7.0583         2.5028         2.5322        40.3372     
