~Version Information Section
VERS.          2.0                                     : CWLS LOG ASCII Standard
WRAP.          NO                                      : One line per depth step
CREA.          05/10/19                                : LAS Creation Date
~Well Information Section
STRT.ft        839.0000                                : Start Depth
STOP.ft        7387.0000                               : Stop Depth
STEP.ft        0.5000                                  : Step
NULL.          -999.5000                               : Null Value
COMP.          MESA PETROLEUM U.K. LTD.                : Company
WELL.          11/30-2                                 : Well
FLD .          EXPLORATION                             : Field
LOC .          NORTH SEA                               : Location
LOC1.          -                                       : Location (UTM)
CTRY.          UK                                      : Country
PROV.          UKCS                                    : Province
UWI .          799                                     : UWI Number
API .          -                                       : API Number
SECT.          -                                       : Section
TOWN.          -                                       : Township
RNGE.          -                                       : Range
PDAT.          MSL                                     : Perm Datum
EPD .ft        0.0                                     : Elevation
LMF .          KB                                      : Log Measured From
DMF .          KB                                      : Drill Measured From
APD .ft        113.0                                   : Above Perm Datum
EKB .ft        112.0                                   : Elev-Kelly Bushing
EDF .ft        111.0                                   : Elev-Drill Floor
EGL .ft        -158.0                                  : Elev-Ground Level (Water Depth)
TDD .ft        7407.0                                  : Total Depth (Driller)
TDL .ft        7388.00                                 : Total Depth (Logger)
SRVC.          SCHLUMBERGER                            : Service Company
LATI.          58 06 30.0 N                            : Latitude
LONG.          03 06 02.0 W                            : Longitude
DATE.          NOV-DEC-1976                            : Logging Date
PROJ.          UKCS                                    : Project
SET .          COMP_WIRE                               : Set
~Curve Information Section
DEPTH.ft                                                  : Depth Curve
CALI.in                                                : Caliper BHC-FDC
CALS.in                                                : Caliper DLL
DRHO.g/cc                                              : Delta Rho
DT.us/ft                                               : Delta-T
GR.gAPI                                                : Gamma Ray ISF
GRD.gAPI                                               : Gamma Ray FDC
GRL.gAPI                                               : Gamma Ray DLL
ILD.Ohmm                                               : Deep Induction Standard Processed Resistivity
LLD.Ohmm                                               : Latero-Log Deep (Resistivity)
LLS.Ohmm                                               : Latero-Log Shallow (Resistivity)
MSFL.Ohmm                                              : Msfl Resistivity
NPHI.pu                                                : Neutron Porosity
RHOB.g/cc                                              : Bulk Density
SFLU.Ohmm                                              : SFL Resistivity (Unaveraged)
SP.mV                                                  : Spontaneous Potential ISF
SPL.mV                                                 : Spontaneous Potential  DLL
~ASCII Log Data Section
# ...
 6583.0000        14.0834        12.5634         0.1712        88.9504        94.3844        68.9859        86.3261         4.7840         4.6340         4.3134         2.0083        38.9295         2.3591         2.5749        66.0463        88.7936     
 6583.5000        14.9152        12.1777         0.1702        90.3804        98.1231        71.7581        87.5684         4.7304         4.7262         4.2246         1.9136        39.6864         2.3460         2.5808        66.0239        89.0414     
 6584.0000        14.8834        11.5707         0.1953        90.5578       100.5212        74.3088        87.9351         4.8938         4.8189         4.3799         2.1004        40.2261         2.3433         2.5901        65.9579        89.0930     
 6584.5000        14.6848        10.7621         0.1868        89.1211        97.8193        71.3321        87.8093         5.0613         5.0095         4.5557         2.4281        39.7578         2.3379         2.6047        65.8956        88.7014     
 6585.0000        14.3032        10.0935         0.1390        86.7811        93.0549        68.2583        88.0861         5.2289         5.3140         4.7162         2.5994        36.7553         2.3634         2.6494        65.7815        88.5543     
 6585.5000        14.3123         9.6098         0.1120        84.4587        91.1097        68.5879        90.7239         5.7345         5.6182         4.8676         3.0533        33.2644         2.4017         2.6941        65.7024        88.5916     
 6586.0000        12.8913         9.3669         0.0974        82.6622        91.8147        68.3056        92.4671         6.2465         5.9525         5.4847         5.0373        30.0987         2.4285         3.1492        65.6915        88.2485     
 6586.5000        12.6605         9.3268         0.1061        80.2040        93.4662        67.9235        92.3657         6.7582         6.7677         6.8020        12.5970        27.2274         2.4857         3.6097        65.6915        87.9767     
 6587.0000        11.0598         9.3235         0.0972        76.7353        91.2874        69.5723        91.7478         7.7508         9.1798         8.5122        17.0831        23.3502         2.5190         4.0704        65.6915        87.8833     
 6587.5000        10.1155         9.2859         0.0703        73.2376        87.5075        68.6232        88.8652         9.2553        12.7335        13.2100        19.9480        20.2236         2.5598         5.1460        65.6915        87.7740     
 6588.0000         9.8602         9.2760         0.0524        70.9979        83.7672        66.2809        84.4215        10.7598        15.6393        16.4639        20.5981        17.3401         2.5735         6.5495        65.6335        87.5486     
 6588.5000         9.5574         9.2716         0.0419        70.2100        80.5409        61.6510        80.1577        12.2655        16.7650        16.4260        17.2889        15.4180         2.5915         7.9541        65.4516        87.0111     
 6589.0000         9.4880         9.2671         0.0435        69.8507        73.2125        56.4364        75.3639        14.5477        16.6877        16.0150        17.4641        15.1015         2.6099         8.9247        65.2617        86.8226     
 6589.5000         9.4429         9.2626         0.0323        69.8018        68.2800        51.6546        68.0283        16.5933        16.6602        15.8911        18.2834        14.1383         2.5761         9.6339        65.1373        86.4129     
 6590.0000         9.3489         9.2705         0.0137        69.8626        65.1072        46.1380        61.2879        17.7447        17.0875        16.0902        18.8037        12.9701         2.5274         9.8224        65.0696        86.0134     
 6590.5000         9.3472         9.3412         0.0051        70.1572        63.4758        44.4840        57.7200        16.7411        17.5098        16.5543        18.1441        12.4650         2.4832         9.5227        65.1214        86.1808     
 6591.0000         9.3861         9.4563         0.0157        70.6344        61.1598        43.1516        56.3811        14.5589        17.7644        16.9114        13.0245        12.3094         2.4348         8.7326        65.2405        86.4128     
 6591.5000         9.3929         9.8527         0.0471        72.5403        57.7085        41.1930        56.7193        12.0935        17.2991        13.9176         4.6531        12.4981         2.3643         7.7618        65.4171        86.7815     
 6592.0000         9.4178        10.4320         0.1044        75.0207        55.1815        40.2544        57.0611         9.7264        14.2619         9.9175         1.6648        15.3148         2.2688         6.6703        65.6573        87.0190     
 6592.5000         9.5082        10.7330         0.1994        78.5671        54.9484        40.6195        60.5403         8.0745        10.1739         7.5986         0.9800        22.7513         2.1709         5.4053        65.9552        87.1550     
 6593.0000         9.8392        10.8917         0.2554        80.9696        57.2192        41.9234        64.8654         6.8003         7.2170         5.6768         0.5835        30.0922         2.0728         4.4402        66.2151        87.3052     
 6593.5000        11.6686        11.0369         0.2328        83.3487        63.5388        45.6661        67.3629         5.7836         5.1733         4.4396         0.5877        36.8766         2.0888         3.7840        66.3065        87.4080     
 6594.0000        13.6271        11.2266         0.2555        84.8235        73.1698        52.5414        70.3173         5.3040         4.4341         4.0871         0.9619        39.2767         2.1448         3.1992        66.3656        87.5337     
 6594.5000        14.9463        11.5767         0.2301        87.2948        85.0351        61.7041        75.2743         4.8243         4.0094         4.1070         0.9743        40.5074         2.1272         2.9853        66.4295        87.8201     
 6595.0000        15.4601        11.6902         0.1912        89.1603        87.4643        66.2174        79.8390         4.3845         4.2928         4.4895         0.8815        41.4488         2.1406         2.7264        66.4415        87.8503     
 6595.5000        14.9571        11.6469         0.1837        89.9572        86.5531        64.4180        79.5798         4.1547         4.6688         4.7090         0.9747        42.0063         2.2102         2.5224        66.3948        88.0819     
 6596.0000        14.8834        11.4792         0.2464        88.4372        83.0585        61.4437        78.2225         3.9247         4.7565         4.8426         1.3630        41.2532         2.2342         2.4429        66.3313        88.2742     
 6596.5000        15.3282        11.0123         0.2337        87.2527        78.4933        58.2721        77.7239         4.0071         4.8059         4.9233         1.3718        38.8326         2.1883         2.4847        66.3165        88.3289     
 6597.0000        15.7750        10.1122         0.2300        87.5686        76.0704        56.4438        77.2295         4.2490         4.8914         4.9825         1.4811        38.0526         2.1654         2.5465        66.3609        88.3889     
 6597.5000        14.5531         9.3510         0.1727        89.2394        76.7032        56.0711        76.3637         4.6839         5.0526         5.2888         1.7524        37.5815         2.1129         2.7095        66.5110        88.5015     
 6598.0000        13.2067         8.9690         0.0988        89.0282        78.4535        56.0589        73.4029         5.1190         5.7882         6.5508         1.8691        36.7445         2.0628         3.0285        66.7398        88.5642     
 6598.5000        13.1033         8.9190         0.0464        87.4961        78.4901        56.0649        71.7822         6.2438         7.0369         8.0512         2.0334        35.8493         2.0953         3.3791        66.9859        88.5903     
