~Version Information Section
VERS.          2.0                                     : CWLS LOG ASCII Standard
WRAP.          NO                                      : One line per depth step
CREA.          04/05/19                                : LAS Creation Date
~Well Information Section
STRT.ft        269.0000                                : Start Depth
STOP.ft        10060.0000                              : Stop Depth
STEP.ft        0.5000                                  : Step
NULL.          -999.2500                               : Null Value
COMP.          BRITOIL                                 : Company
WELL.          11/30a-9                                : Well
FLD .          BEATRICE                                : Field
LOC .          NORTH SEA                               : Location
LOC1.          6439409.78mN 491059.29mE                : Location (UTM) 
CTRY.          UK                                      : Country
PROV.          UKCS                                    : Province
UWI .          7462                                    : UWI Number
API .          -                                       : API Number
SECT.          -                                       : Section
TOWN.          -                                       : Township
RNGE.          -                                       : Range
PDAT.          MSL                                     : Perm Datum
EPD .ft        0.0                                     : Elevation
LMF .          RKB                                     : Log Measured From
DMF .          RKB                                     : Drill Measured From
APD .ft        102.0                                   : Above Perm Datum
EKB .ft        102.0                                   : Elev-Kelly Bushing
EDF .ft        101.0                                   : Elev-Drill Floor
EGL .ft        -173                                    : Elev-Ground Level (Water Depth)
TDD .ft        10060.00                                : Total Depth (Driller)
TDL .ft        10060.00                                : Total Depth (Logger)
SRVC.          SCHLUMBERGER                            : Service Company
LATI.          58 05 40.910 N                          : Latitude
LONG.          03 09 05.942 W                          : Longitude
DATE.          JUL-SEP-1983                            : Logging Date
PROJ.          UKCS                                    : Project
SET .          COMP WIRE                               : Set
~Curve Information Section
DEPTH.ft                                               : Depth Curve
CALI.in                                                : Density Caliper
DRHO.g/cc                                              : Density correction
DT.us/ft                                               : Delta-T
GR.gAPI                                                : Gamma Ray
ILD.ohmm                                               : Deep Induction Standard Processed Resistivity
NPHI.pu                                                : Neutron Porosity
PEF.b/e                                                : Photo-Electric Factor
RHOB.g/cc                                              : Bulk Density
SGR.gAPI                                               : Spectral Gamma Ray
~ASCII Log Data Section
# ...
 9862.0000        12.6196         0.0445        75.1381        83.7525         5.9687        25.1476         2.3126         2.6296        86.8972     
 9862.5000        12.6089         0.0441        76.2679        83.7500         5.8496        26.7345         2.3519         2.6261        87.1266     
 9863.0000        12.5981         0.0424        77.3194        81.6563         5.7285        27.6326         2.5011         2.6201        88.8191     
 9863.5000        12.5874         0.0392        77.8310        80.7813         5.6445        28.2908         2.5297         2.6075        89.9207     
 9864.0000        12.5769         0.0343        77.5972        81.5956         5.5878        28.8478         2.5127         2.5983        89.6295     
 9864.5000        12.6332         0.0560        76.9268        81.4063         5.5234        28.7469         2.3424         2.6158        88.5166     
 9865.0000        12.7252         0.0734        76.2844        78.9375         5.4609        28.0762         2.1716         2.6403        88.4230     
 9865.5000        12.8125         0.0696        75.9050        80.2813         5.4258        27.2771         2.1857         2.6499        86.7102     
 9866.0000        12.8054         0.0538        75.6638        82.7500         5.4238        26.5386         2.3868         2.6451        88.7765     
 9866.5000        12.7978         0.0282        75.5715        83.5625         5.4355        26.3997         2.8588         2.6358        89.5923     
 9867.0000        12.7936         0.0157        75.9233        82.9063         5.4551        25.8557         3.1606         2.6467        92.5378     
 9867.5000        12.7828         0.0103        76.6633        82.1875         5.4707        25.2418         3.2403         2.6461        93.0109     
 9868.0000        12.6971         0.0073        77.4260        84.5938         5.4746        27.2808         2.9680         2.6396        96.2004     
 9868.5000        12.6209         0.0054        77.8654        89.6617         5.4824        28.7417         2.6612         2.6365        98.8072     
 9869.0000        12.5547         0.0064        77.7243        93.8438         5.5156        28.7143         2.4537         2.6320        99.4413     
 9869.5000        12.4885         0.0104        77.0235        95.0000         5.5586        28.3303         2.2161         2.6246        96.3279     
 9870.0000        12.4221         0.0160        76.0615        92.6563         5.5840        26.9084         2.1319         2.6181        94.2058     
 9870.5000        12.3925         0.0295        74.9764        87.9969         5.6153        26.0531         2.1496         2.6276        97.8798     
 9871.0000        12.3895         0.0468        73.4320        82.7812         5.7598        25.0865         2.2236         2.6429       100.0166     
 9871.5000        12.3865         0.0439        71.4966        74.9688         6.0215        23.2478         2.3717         2.6422        97.8136     
 9872.0000        12.3835         0.0386        69.8854        69.9375         6.2754        21.2609         2.4379         2.6344        88.1473     
 9872.5000        12.3805         0.0413        69.1375        66.0055         6.4745        19.6516         2.3996         2.6314        75.9640     
 9873.0000        12.3775         0.0451        69.5445        60.7188         6.6094        18.7737         2.3419         2.6340        61.2548     
 9873.5000        12.3745         0.0463        70.6050        54.8906         6.6973        17.9615         2.4716         2.6293        48.9987     
 9874.0000        12.3715         0.0415        71.3815        47.5781         6.7754        16.9614         2.7728         2.6068        38.6970     
 9874.5000        12.3685         0.0401        71.3236        40.9844         6.8457        15.5246         2.7996         2.5739        38.1652     
 9875.0000        12.3655         0.0389        70.5925        35.1521         6.8378        13.5826         2.6643         2.5673        39.5268     
 9875.5000        12.3625         0.0388        70.1670        33.1563         6.6914        12.3717         2.5339         2.5731        40.6124     
 9876.0000        12.3595         0.0395        70.1677        35.6875         6.4805        13.3290         2.5991         2.5731        41.6944     
 9876.5000        12.3565         0.0402        70.0157        41.4375         6.2695        14.5757         2.6758         2.5735        43.0061     
 9877.0000        12.3538         0.0438        70.1075        47.5036         6.0467        15.8203         2.7107         2.5782        46.4858     
 9877.5000        12.3512         0.0577        70.5797        55.4375         5.8320        16.6704         2.8794         2.6014        59.1206     
 9878.0000        12.3486         0.0684        71.3665        65.3594         5.6738        17.1689         3.1512         2.6320        70.7126     
 9878.5000        12.3461         0.0688        72.8577        73.5938         5.6074        18.5454         3.4569         2.6438        81.6407     
 9879.0000        12.3435         0.0633        74.7551        78.2489         5.6055        20.2459         3.4241         2.6381        88.4215     
 9879.5000        12.3409         0.0530        76.4297        80.3750         5.6367        22.6758         3.1379         2.6322        93.3298     
 9880.0000        12.3384         0.0498        77.6729        82.9375         5.7031        23.8151         2.9346         2.6282        94.5926     
 9880.5000        12.3441         0.0543        78.2181        82.9688         5.8184        24.0954         2.8619         2.6248        92.5222     
 9881.0000        12.3817         0.0630        77.6158        78.7813         5.9863        25.8091         2.8333         2.6242        83.3755     
 9881.5000        12.4202         0.0649        76.4880        73.4652         6.1329        28.2791         2.8268         2.6421        75.7718     
 9882.0000        12.4366         0.0611        76.2325        71.6250         6.1660        29.5875         2.8833         2.6453        75.1710     
 9882.5000        12.4362         0.0566        77.5167        74.2813         6.1055        28.5184         3.0019         2.6471        81.0978     
 9883.0000        12.4211         0.0591        79.8361        79.6875         6.0059        26.3400         2.8393         2.6485        87.7602     
 9883.5000        12.4365         0.0686        81.6828        85.4417         5.9140        24.2767         2.5264         2.6494        96.5119     
 9884.0000        12.4519         0.0711        82.0402        88.7813         5.8555        24.2332         2.3078         2.6328       100.7535     
 9884.5000        12.4673         0.0602        81.0659        89.9375         5.7949        24.4215         2.3425         2.6126       104.3875     
 9885.0000        12.4866         0.0499        79.6095        89.4063         5.7461        24.2939         2.4938         2.5927       106.0772     
 9885.5000        12.5129         0.0509        78.4919        86.4719         5.8709        22.8998         2.6044         2.5752       102.3936     
 9886.0000        12.5364         0.0542        77.6033        81.6875         6.2090        22.0745         2.5929         2.5780        99.7195     
 9886.5000        12.5318         0.0517        76.5681        76.5625         6.6133        21.0883         2.4941         2.5857        99.0518     
 9887.0000        12.5266         0.0421        75.4982        76.8438         6.9531        19.8662         2.3393         2.5943        98.7144     
 9887.5000        12.5214         0.0330        74.4174        80.5938         7.2031        19.8818         2.1998         2.6085        96.5082     
 9888.0000        12.5162         0.0193        73.2635        81.4996         7.3829        21.1380         2.1682         2.6164        90.0472     
