~Version Information Section
VERS.          2.0                                     : CWLS LOG ASCII Standard
WRAP.          NO                                      : One line per depth step
CREA.          05/10/19                                : LAS Creation Date
~Well Information Section
STRT.ft        839.0000                                : Start Depth
STOP.ft        7387.0000                               : Stop Depth
STEP.ft        0.5000                                  : Step
NULL.          -999.5000                               : Null Value
COMP.          MESA PETROLEUM U.K. LTD.                : Company
WELL.          11/30-2                                 : Well
FLD .          EXPLORATION                             : Field
LOC .          NORTH SEA                               : Location
LOC1.          -                                       : Location (UTM)
CTRY.          UK                                      : Country
PROV.          UKCS                                    : Province
UWI .          799                                     : UWI Number
API .          -                                       : API Number
SECT.          -                                       : Section
TOWN.          -                                       : Township
RNGE.          -                                       : Range
PDAT.          MSL                                     : Perm Datum
EPD .ft        0.0                                     : Elevation
LMF .          KB                                      : Log Measured From
DMF .          KB                                      : Drill Measured From
APD .ft        113.0                                   : Above Perm Datum
EKB .ft        112.0                                   : Elev-Kelly Bushing
EDF .ft        111.0                                   : Elev-Drill Floor
EGL .ft        -158.0                                  : Elev-Ground Level (Water Depth)
TDD .ft        7407.0                                  : Total Depth (Driller)
TDL .ft        7388.00                                 : Total Depth (Logger)
SRVC.          SCHLUMBERGER                            : Service Company
LATI.          58 06 30.0 N                            : Latitude
LONG.          03 06 02.0 W                            : Longitude
DATE.          NOV-DEC-1976                            : Logging Date
PROJ.          UKCS                                    : Project
SET .          COMP_WIRE                               : Set
~Curve Information Section
DEPTH.ft                                                  : Depth Curve
CALI.in                                                : Caliper BHC-FDC
CALS.in                                                : Caliper DLL
DRHO.g/cc                                              : Delta Rho
DT.us/ft                                               : Delta-T
GR.gAPI                                                : Gamma Ray ISF
GRD.gAPI                                               : Gamma Ray FDC
GRL.gAPI                                               : Gamma Ray DLL
ILD.Ohmm                                               : Deep Induction Standard Processed Resistivity
LLD.Ohmm                                               : Latero-Log Deep (Resistivity)
LLS.Ohmm                                               : Latero-Log Shallow (Resistivity)
MSFL.Ohmm                                              : Msfl Resistivity
NPHI.pu                                                : Neutron Porosity
RHOB.g/cc                                              : Bulk Density
SFLU.Ohmm                                              : SFL Resistivity (Unaveraged)
SP.mV                                                  : Spontaneous Potential ISF
SPL.mV                                                 : Spontaneous Potential  DLL
~ASCII Log Data Section
# ...
 6967.0000         8.8004         8.4563         0.0802        74.5302        26.0276        18.8132        22.7295         9.4921        12.2629        13.1841        18.6267        10.1843         2.4084        11.0422        56.4549        71.7009     
 6967.5000         8.8004         8.4563         0.0546        75.0883        25.7895        19.0997        24.2761         9.2953        11.7930        12.8205        18.4486        10.4125         2.3937        10.8425        56.5125        71.7874     
 6968.0000         8.8081         8.4563         0.0648        75.6025        25.5628        19.7953        25.5174         9.0573        11.4098        12.4479        18.3909        10.7627         2.3969        10.6752        56.6178        71.9503     
 6968.5000         8.8362         8.4563         0.0447        75.9376        25.0906        20.8816        26.0242         8.8586        11.0556        12.0850        17.9997        11.0442         2.3915        10.5341        56.7803        71.9297     
 6969.0000         8.7832         8.4474         0.0310        76.1228        25.5835        21.7794        26.5058         8.7049        10.7110        11.7298        17.4640        10.8433         2.3846        10.4150        57.0093        71.8864     
 6969.5000         8.6696         8.4235         0.0389        76.1568        27.5052        20.3254        27.1223         8.5008        10.4178        11.4180        17.3448        10.6955         2.4023        10.3274        57.2197        72.0975     
 6970.0000         8.6504         8.4078         0.0387        76.0523        27.7514        18.5798        26.5270         8.2370        10.1299        11.1047        17.3108        10.9853         2.4152        10.0954        57.2900        72.0855     
 6970.5000         8.6504         8.4078         0.0330        75.8232        27.9993        19.5774        25.5726         7.9111         9.8152        10.8102        16.5895        11.5141         2.4118         9.7627        57.2081        72.3815     
 6971.0000         8.6504         8.4078         0.0349        75.8563        28.4836        20.5483        24.5805         7.5853         9.4729        10.4701        15.5909        11.7940         2.4123         9.4776        57.0474        72.6455     
 6971.5000         8.6504         8.4078         0.0263        76.2375        29.6927        22.4405        23.5159         7.2589         9.1732        10.1351        14.7245        11.6935         2.4138         9.1920        56.8569        72.5128     
 6972.0000         8.6504         8.4078         0.0283        77.0312        30.4198        23.3414        23.9979         7.0137         8.9274         9.8873        14.1465        11.6954         2.4063         8.9068        56.7462        72.5979     
 6972.5000         8.6504         8.4078         0.0354        77.8185        29.4770        22.3942        25.7339         6.7767         8.6396         9.6069        13.7675        12.1454         2.3963         8.6423        56.7589        72.6559     
 6973.0000         8.6504         8.4078         0.0322        78.1957        27.4375        22.6771        28.3176         6.5574         8.3527         9.2876        13.5997        12.5947         2.3907         8.4364        56.8947        72.3677     
 6973.5000         8.6504         8.4078         0.0245        78.0053        27.8006        23.3801        30.6989         6.3937         8.0174         8.9908        12.8064        12.4665         2.3776         8.2303        57.0847        72.4059     
 6974.0000         8.6504         8.4077         0.0167        77.5978        28.2909        23.2513        32.6073         6.2302         7.7660         8.7087        12.8885        12.3408         2.3678         8.0245        57.2331        72.6550     
 6974.5000         8.6504         8.4077         0.0172        77.4064        32.1089        23.2694        32.8769         6.0880         7.5744         8.4249        13.1145        12.4526         2.3787         7.8971        57.2550        72.7669     
 6975.0000         8.6504         8.4077         0.0337        77.7296        33.0920        24.5296        33.7723         5.9529         7.3333         8.1333        13.0115        12.6080         2.3995         7.7757        57.0822        72.6514     
 6975.5000         8.6504         8.4077         0.0300        78.2826        33.3453        25.5652        36.0518         5.8179         7.1320         7.9037        12.4418        12.6675         2.3997         7.6541        56.9005        72.6100     
 6976.0000         8.6504         8.4077         0.0175        78.7887        33.5983        26.2483        37.9934         5.8220         6.9558         7.7524        11.3507        12.6455         2.3871         7.5780        56.8484        72.6548     
 6976.5000         8.6504         8.4077         0.0214        78.8377        35.5249        26.5381        38.8253         5.8396         6.8110         7.5854        11.4821        12.7782         2.3896         7.5608        56.9137        72.6999     
 6977.0000         8.6504         8.4077         0.0238        78.5366        36.3634        26.9559        38.5330         5.8572         6.6671         7.4490        11.3379        12.8396         2.3806         7.5436        57.0433        72.5952     
 6977.5000         8.6504         8.4077         0.0242        78.1652        36.2597        27.6389        37.6461         5.9362         6.6277         7.3138        11.1627        12.6235         2.3757         7.5264        57.0984        72.5734     
 6978.0000         8.6504         8.4077         0.0242        77.8588        36.7470        27.9385        37.2727         6.0584         6.6650         7.2079        11.1386        11.9953         2.3824         7.7513        57.0351        72.6840     
 6978.5000         8.6504         8.4077         0.0304        77.6510        36.4963        28.0561        36.7360         6.2320         6.7039         7.2210        11.4985        11.8166         2.3947         8.0457        56.9374        72.5802     
 6979.0000         8.6504         8.4102         0.0288        77.4866        36.7622        27.8930        35.7716         6.4216         6.8571         7.2923        12.0456        12.1076         2.3883         8.3401        56.7895        72.5584     
 6979.5000         8.6504         8.4284         0.0415        77.3830        35.2017        26.6676        34.6354         6.7020         7.1015         7.4041        11.2002        12.4225         2.3921         8.6345        56.5892        72.5386     
 6980.0000         8.6504         8.4556         0.0381        77.1746        34.6182        24.7154        33.6055         7.0420         7.2521         7.6616        11.1526        12.0016         2.3965         9.0312        56.6025        72.5484     
 6980.5000         8.6504         8.4581         0.0267        76.8559        34.6257        26.3287        33.4315         7.3815         7.6061         8.1080        11.9102        11.2767         2.3858         9.4312        56.7190        72.5435     
 6981.0000         8.6504         8.4757         0.0221        76.4504        33.2457        26.8199        33.4255         7.7210         8.1395         8.6331        12.8842        11.1454         2.3842         9.7399        56.9686        72.6721     
 6981.5000         8.6504         8.5026         0.0223        76.1737        30.3919        25.9345        32.9162         8.0605         8.6766         9.1581        13.8646        10.9197         2.3929         9.9986        57.1950        72.8172     
 6982.0000         8.6504         8.4863         0.0208        75.9817        29.8465        24.5175        31.9894         8.4005         9.2137         9.5727        14.9656        10.3561         2.3924        10.2598        57.0761        73.1684     
 6982.5000         8.6504         8.4570         0.0294        76.0487        28.5380        23.5137        31.0711         8.7242         9.6602         9.9622        16.3616        10.2998         2.4001        10.5315        56.8782        73.3913     
