~Version Information Section
VERS.          2.0                                     : CWLS LOG ASCII Standard
WRAP.          NO                                      : One line per depth step
CREA.          05/10/19                                : LAS Creation Date
~Well Information Section
STRT.ft        839.0000                                : Start Depth
STOP.ft        7387.0000                               : Stop Depth
STEP.ft        0.5000                                  : Step
NULL.          -999.5000                               : Null Value
COMP.          MESA PETROLEUM U.K. LTD.                : Company
WELL.          11/30-2                                 : Well
FLD .          EXPLORATION                             : Field
LOC .          NORTH SEA                               : Location
LOC1.          -                                       : Location (UTM)
CTRY.          UK                                      : Country
PROV.          UKCS                                    : Province
UWI .          799                                     : UWI Number
API .          -                                       : API Number
SECT.          -                                       : Section
TOWN.          -                                       : Township
RNGE.          -                                       : Range
PDAT.          MSL                                     : Perm Datum
EPD .ft        0.0                                     : Elevation
LMF .          KB                                      : Log Measured From
DMF .          KB                                      : Drill Measured From
APD .ft        113.0                                   : Above Perm Datum
EKB .ft        112.0                                   : Elev-Kelly Bushing
EDF .ft        111.0                                   : Elev-Drill Floor
EGL .ft        -158.0                                  : Elev-Ground Level (Water Depth)
TDD .ft        7407.0                                  : Total Depth (Driller)
TDL .ft        7388.00                                 : Total Depth (Logger)
SRVC.          SCHLUMBERGER                            : Service Company
LATI.          58 06 30.0 N                            : Latitude
LONG.          03 06 02.0 W                            : Longitude
DATE.          NOV-DEC-1976                            : Logging Date
PROJ.          UKCS                                    : Project
SET .          COMP_WIRE                               : Set
~Curve Information Section
DEPTH.ft                                                  : Depth Curve
CALI.in                                                : Caliper BHC-FDC
CALS.in                                                : Caliper DLL
DRHO.g/cc                                              : Delta Rho
DT.us/ft                                               : Delta-T
GR.gAPI                                                : Gamma Ray ISF
GRD.gAPI                                               : Gamma Ray FDC
GRL.gAPI                                               : Gamma Ray DLL
ILD.Ohmm                                               : Deep Induction Standard Processed Resistivity
LLD.Ohmm                                               : Latero-Log Deep (Resistivity)
LLS.Ohmm                                               : Latero-Log Shallow (Resistivity)
MSFL.Ohmm                                              : Msfl Resistivity
NPHI.pu                                                : Neutron Porosity
RHOB.g/cc                                              : Bulk Density
SFLU.Ohmm                                              : SFL Resistivity (Unaveraged)
SP.mV                                                  : Spontaneous Potential ISF
SPL.mV                                                 : Spontaneous Potential  DLL
~ASCII Log Data Section
# ...
 6279.0000        10.3035         8.9590         0.2877        85.2936        99.3563        80.1809        91.5236         3.5974         4.1883         4.4293         4.9343        25.2463         2.3522         4.1577        69.2000        87.4013     
 6279.5000        10.4663         8.9591         0.2650        85.2849        98.7018        79.7166        92.1290         3.5569         4.0131         4.2743         2.7571        27.1210         2.2939         4.2831        69.1603        87.4789     
 6280.0000        10.4087         8.9591         0.2614        85.0995        98.0355        79.0266        94.4134         3.5245         4.0073         4.3030         2.0515        27.9738         2.2880         4.3394        69.0195        87.3634     
 6280.5000        10.3664         8.9670         0.2741        85.0300        97.0989        78.9259        95.5941         3.5060         4.0931         4.4146         2.4555        27.0629         2.3094         4.2427        68.9109        87.4182     
 6281.0000        10.2423         8.9908         0.3096        85.0973        95.1173        78.4188        93.4466         3.5153         4.1308         4.4715         3.3091        25.3303         2.3356         4.0911        69.0031        87.5395     
 6281.5000        10.3381         9.0073         0.3309        84.7774        93.1877        78.8897        93.3472         3.5234         4.1576         4.4942         4.5669        24.4427         2.3412         3.9669        69.1514        87.4651     
 6282.0000        10.3499         9.0076         0.3210        83.9857        92.7288        78.5589        94.0313         3.5234         4.1777         4.4781         2.9700        24.9834         2.3431         3.9249        69.2000        87.0873     
 6282.5000        10.3727         9.0176         0.3123        84.0609        92.1754        77.9686        93.9450         3.5234         4.1199         4.3835         2.8379        25.4891         2.3583         4.0335        69.1628        86.8248     
 6283.0000        10.6072         9.0422         0.3139        85.2685        91.2594        78.0114        95.2543         3.5170         4.0430         4.2991         3.3661        25.5193         2.3914         4.1066        69.0268        86.9528     
 6283.5000        10.6104         9.0674         0.3013        86.4670        91.4124        78.3992        97.0273         3.4691         3.9765         4.2612         2.1973        26.3822         2.3836         3.9386        68.8037        86.8963     
 6284.0000        10.6731         9.1039         0.2549        86.4742        95.3941        78.4204        97.9264         3.3720         3.9122         4.1855         2.2681        27.7706         2.3746         3.7973        68.5915        86.8111     
 6284.5000        10.9560         9.1536         0.2076        86.2276        99.3721        78.2570        98.0122         3.3066         3.8435         4.0715         2.1646        29.1143         2.3764         3.7607        68.5122        86.4931     
 6285.0000        11.0636         9.1908         0.2142        86.3855       101.8876        78.2246        98.8624         3.2823         3.6921         3.9318         1.4679        28.2943         2.3935         3.6331        68.5832        86.2744     
 6285.5000        11.6546         9.2431         0.2424        87.5218       103.2023        78.2965        98.3232         3.2680         3.5450         3.8291         1.4335        27.5097         2.3933         3.5971        68.7772        86.3874     
 6286.0000        11.5626         9.3159         0.2555        87.8208       103.3168        78.2526        95.9560         3.2525         3.5203         3.7928         1.9616        28.4178         2.3580         3.5611        68.9916        86.3336     
 6286.5000        10.3764         9.3477         0.2492        87.8828       102.2331        77.4818        95.7300         3.2437         3.5324         3.7751         2.6067        30.4182         2.3576         3.5251        69.1430        86.4099     
 6287.0000        10.8399         9.3609         0.2376        87.8589       100.0805        75.2635        95.8815         3.2383         3.5462         3.7673         3.0431        31.5563         2.3865         3.4891        69.2342        87.0378     
 6287.5000        11.4217         9.3964         0.2270        88.2765       100.2114        74.8161        96.0371         3.2178         3.5990         3.8096         3.2444        32.0020         2.3967         3.4531        69.1626        87.4095     
 6288.0000        11.7009         9.4195         0.2106        88.5986        99.6473        76.5873        95.9789         3.1989         3.6625         3.8912         2.9095        32.4379         2.3642         3.4361        68.9433        87.3300     
 6288.5000        11.9597         9.3927         0.2105        87.8508        95.6873        75.8342        95.4791         3.2099         3.6806         3.9261         2.0370        33.0059         2.3394         3.4563        68.7272        87.2030     
 6289.0000        11.9234         9.3140         0.2254        86.7998        91.1952        72.2384        91.9927         3.2393         3.6843         3.9272         2.0595        34.3342         2.3292         3.4766        68.5731        87.2024     
 6289.5000        11.7915         9.1844         0.2289        85.7488        90.0001        69.5975        89.5160         3.2691         3.7017         3.9370         2.2878        34.6013         2.3021         3.5024        68.5121        87.1359     
 6290.0000        12.5119         9.0830         0.2161        85.4100        89.7933        70.1817        88.5391         3.3043         3.6388         3.8932         1.9473        33.9311         2.2651         3.5551        68.6064        86.7750     
 6290.5000        12.6926         9.0561         0.2009        85.1763        87.6924        71.3158        87.0534         3.3500         3.5779         3.8554         1.7634        31.6182         2.2281         3.6077        68.8238        86.6604     
 6291.0000        11.9025         9.0566         0.2169        85.1402        84.9462        72.0586        87.9233         3.3909         3.6744         3.9958         1.4259        27.8816         2.1976         3.6764        69.0420        87.0362     
 6291.5000        10.8618         9.0934         0.2358        85.4253        84.3268        72.2847        90.1007         3.4221         3.9159         4.2217         2.0266        27.1525         2.1921         3.7528        69.1679        87.2053     
 6292.0000        11.3938         9.1780         0.2397        86.1172        85.9168        71.4322        89.5949         3.4586         4.0639         4.3408         2.3001        28.2417         2.2110         3.8293        69.1408        87.3391     
 6292.5000        11.5933         9.2762         0.2456        88.0869        85.1172        69.8312        87.6018         3.4960         3.9885         4.2978         2.0007        28.0558         2.2587         3.9162        68.9866        87.5184     
 6293.0000        11.7276         9.3325         0.2501        89.9434        84.8409        68.7759        86.0904         3.4976         3.8597         4.1995         2.0901        27.4879         2.3268         4.0127        68.8583        87.5756     
 6293.5000        11.3864         9.2814         0.2480        89.6548        85.8050        69.8055        84.6904         3.4706         3.7600         4.0872         2.3614        27.2589         2.3741         3.9854        68.8534        87.6589     
 6294.0000        11.6687         9.1635         0.2266        87.8903        87.4844        72.0884        84.1610         3.4497         3.6793         4.0177         2.3134        28.2722         2.3855         3.9580        68.9718        87.7167     
 6294.5000        11.8014         9.0412         0.2121        86.1183        89.8706        74.2965        84.1926         3.4146         3.6692         4.0130         2.0946        28.9650         2.3689         3.9037        69.1586        87.7282     
