~Version Information Section
VERS.          2.0                                     : CWLS LOG ASCII Standard
WRAP.          NO                                      : One line per depth step
CREA.          04/05/19                                : LAS Creation Date
~Well Information Section
STRT.ft        269.0000                                : Start Depth
STOP.ft        10060.0000                              : Stop Depth
STEP.ft        0.5000                                  : Step
NULL.          -999.2500                               : Null Value
COMP.          BRITOIL                                 : Company
WELL.          11/30a-9                                : Well
FLD .          BEATRICE                                : Field
LOC .          NORTH SEA                               : Location
LOC1.          6439409.78mN 491059.29mE                : Location (UTM) 
CTRY.          UK                                      : Country
PROV.          UKCS                                    : Province
UWI .          7462                                    : UWI Number
API .          -                                       : API Number
SECT.          -                                       : Section
TOWN.          -                                       : Township
RNGE.          -                                       : Range
PDAT.          MSL                                     : Perm Datum
EPD .ft        0.0                                     : Elevation
LMF .          RKB                                     : Log Measured From
DMF .          RKB                                     : Drill Measured From
APD .ft        102.0                                   : Above Perm Datum
EKB .ft        102.0                                   : Elev-Kelly Bushing
EDF .ft        101.0                                   : Elev-Drill Floor
EGL .ft        -173                                    : Elev-Ground Level (Water Depth)
TDD .ft        10060.00                                : Total Depth (Driller)
TDL .ft        10060.00                                : Total Depth (Logger)
SRVC.          SCHLUMBERGER                            : Service Company
LATI.          58 05 40.910 N                          : Latitude
LONG.          03 09 05.942 W                          : Longitude
DATE.          JUL-SEP-1983                            : Logging Date
PROJ.          UKCS                                    : Project
SET .          COMP WIRE                               : Set
~Curve Information Section
DEPTH.ft                                               : Depth Curve
CALI.in                                                : Density Caliper
DRHO.g/cc                                              : Density correction
DT.us/ft                                               : Delta-T
GR.gAPI                                                : Gamma Ray
ILD.ohmm                                               : Deep Induction Standard Processed Resistivity
NPHI.pu                                                : Neutron Porosity
PEF.b/e                                                : Photo-Electric Factor
RHOB.g/cc                                              : Bulk Density
SGR.gAPI                                               : Spectral Gamma Ray
~ASCII Log Data Section
# ...
 9173.0000        12.0652         0.0298        74.0586        25.8281        10.4492        12.1717         4.1762         2.4586        32.8283     
 9173.5000        12.0428         0.0312        74.2426        25.0078         9.9922        12.0571         4.4829         2.4624        31.8301     
 9174.0000        12.0041         0.0329        74.1947        24.6792        10.1876        12.3707         4.3720         2.4616        30.1699     
 9174.5000        11.9876         0.0347        74.0857        24.7656        10.3125        12.3608         4.2909         2.4541        28.9752     
 9175.0000        11.9874         0.0377        73.9605        24.5156        10.3320        12.0741         4.3024         2.4582        29.0515     
 9175.5000        11.9874         0.0410        73.8202        24.9531        10.3555        11.8769         4.4608         2.4626        29.8378     
 9176.0000        11.9874         0.0443        73.7344        25.9142        10.3438        11.8906         4.7551         2.4638        29.6595     
 9176.5000        11.9874         0.0549        73.5943        26.5000        10.2305        12.1175         4.9532         2.4617        28.7959     
 9177.0000        11.9874         0.0551        73.4299        25.4375        10.1250        12.5519         4.8253         2.4597        27.9991     
 9177.5000        11.9874         0.0516        73.4522        22.8281         9.9102        12.9484         4.6592         2.4599        27.1608     
 9178.0000        11.9874         0.0491        73.6155        22.3828         9.4922        13.2983         4.4620         2.4620        26.1840     
 9178.5000        11.9874         0.0499        73.6955        23.3681         9.1248        13.4973         4.3557         2.4734        25.9216     
 9179.0000        11.9875         0.0510        73.7026        24.4844         8.9805        13.6880         4.3294         2.4929        27.8760     
 9179.5000        11.9875         0.0608        73.7413        24.1797         8.9766        13.8057         4.6807         2.5157        30.3430     
 9180.0000        11.9875         0.0737        73.6831        24.8594         8.9648        13.8329         4.7843         2.5379        31.8134     
 9180.5000        11.9874         0.0830        73.4965        26.9462         8.8710        13.7106         4.9146         2.5450        32.2342     
 9181.0000        11.9874         0.0836        73.1813        28.7500         8.9414        13.5870         4.8737         2.5357        31.3704     
 9181.5000        11.9874         0.0820        72.5228        29.4141         9.2188        13.4030         4.7296         2.5278        30.7884     
 9182.0000        11.9874         0.0789        71.3512        27.9453         9.4727        13.0891         4.5857         2.5208        30.3162     
 9182.5000        11.9874         0.0733        69.7110        27.3355         9.6327        11.8330         4.4328         2.5113        29.5282     
 9183.0000        11.9874         0.0660        68.1993        27.3984         9.6914        10.1939         4.1919         2.5023        29.3933     
 9183.5000        11.9874         0.0605        67.5454        27.6719         9.7266         8.5954         3.9202         2.5223        28.8929     
 9184.0000        11.9874         0.0651        67.7790        27.9766         9.7969         7.7226         3.8902         2.5497        28.7589     
 9184.5000        11.9874         0.0721        68.3922        26.8906         9.8828         8.1905         3.8902         2.5748        29.0567     
 9185.0000        11.9874         0.0631        68.9968        26.5791        10.0471         8.1428         3.8668         2.5697        29.5087     
 9185.5000        11.9874         0.0538        69.4645        25.8125        10.2188         7.7096         3.8534         2.5482        29.6721     
 9186.0000        11.9874         0.0457        69.7166        25.0938        10.2344         7.3126         4.0849         2.5364        29.6129     
 9186.5000        11.9874         0.0429        69.8634        25.3516        10.2188         7.1715         4.3523         2.5350        30.0046     
 9187.0000        11.9874         0.0443        70.0939        24.2723        10.2852         7.5053         4.4387         2.5300        30.7684     
 9187.5000        11.9874         0.0458        70.3747        22.4453        10.5039         8.2363         4.2122         2.5219        31.8868     
 9188.0000        11.9874         0.0477        70.6098        20.2109        10.8242         8.7141         4.0594         2.5203        33.4858     
 9188.5000        11.9874         0.0523        70.8052        19.5703        11.1563         9.9342         3.9683         2.5212        32.2691     
 9189.0000        11.9874         0.0527        70.9919        20.6084        11.5621        11.0533         4.0690         2.5200        29.0704     
 9189.5000        11.9874         0.0525        71.1644        22.4531        12.0117        11.8555         4.2241         2.5139        26.3320     
 9190.0000        11.9874         0.0512        71.3131        24.6953        12.4922        12.3414         4.1036         2.5068        24.8579     
 9190.5000        11.9874         0.0537        71.5158        24.5859        12.9883        13.0156         3.9361         2.4996        24.6661     
 9191.0000        11.9875         0.0557        71.8371        22.6953        13.3594        13.3317         3.8107         2.4918        25.1007     
 9191.5000        11.9875         0.0557        72.1486        20.5056        13.6252        13.2465         3.8059         2.4835        25.0539     
 9192.0000        11.9878         0.0540        72.3281        19.6016        13.7969        13.0197         3.8345         2.4814        25.7464     
 9192.5000        12.0127         0.0546        72.3971        20.7734        13.9219        12.6980         3.9198         2.4886        23.4927     
 9193.0000        12.0629         0.0595        72.3127        22.4766        14.0078        12.0857         4.1198         2.4967        23.3900     
 9193.5000        12.0812         0.0515        72.1475        24.1026        15.6393        11.9939         4.0448         2.4835        24.8370     
 9194.0000        12.0812         0.0445        72.2122        24.0469        15.8477        12.0597         4.0265         2.4670        26.4195     
 9194.5000        12.0812         0.0507        72.4536        23.4844        13.8086        12.1662         4.0200         2.4717        26.5321     
 9195.0000        12.0812         0.0596        72.4861        24.1406        13.1016        12.5217         3.9754         2.4840        26.5308     
 9195.5000        12.0812         0.0605        72.2444        25.5221        12.9766        12.5898         3.9294         2.4912        26.7915     
 9196.0000        12.0812         0.0511        71.6087        25.7031        12.9102        12.4748         3.8707         2.4817        27.4928     
 9196.5000        12.0812         0.0445        70.5286        24.6953        12.8633        12.2859         4.1108         2.4722        28.0257     
 9197.0000        12.0812         0.0438        69.0667        23.1172        12.9297        11.5890         4.3256         2.4796        26.4795     
 9197.5000        12.0812         0.0470        67.6445        21.0781        12.8438        11.1639         4.4675         2.4966        25.0420     
 9198.0000        12.1108         0.0598        66.7189        19.6866        12.4450        10.9931         4.3249         2.5366        23.4406     
 9198.5000        12.1740         0.0763        66.7539        19.3750        11.8984        10.8447         4.1981         2.5944        23.8619     
 9199.0000        12.1919         0.0926        67.5937        20.7031        11.2852        10.5428         4.1198         2.6222        25.2536     
