~Version Information Section
VERS.          2.0                                     : CWLS LOG ASCII Standard
WRAP.          NO                                      : One line per depth step
CREA.          05/10/19                                : LAS Creation Date
~Well Information Section
STRT.ft        839.0000                                : Start Depth
STOP.ft        7387.0000                               : Stop Depth
STEP.ft        0.5000                                  : Step
NULL.          -999.5000                               : Null Value
COMP.          MESA PETROLEUM U.K. LTD.                : Company
WELL.          11/30-2                                 : Well
FLD .          EXPLORATION                             : Field
LOC .          NORTH SEA                               : Location
LOC1.          -                                       : Location (UTM)
CTRY.          UK                                      : Country
PROV.          UKCS                                    : Province
UWI .          799                                     : UWI Number
API .          -                                       : API Number
SECT.          -                                       : Section
TOWN.          -                                       : Township
RNGE.          -                                       : Range
PDAT.          MSL                                     : Perm Datum
EPD .ft        0.0                                     : Elevation
LMF .          KB                                      : Log Measured From
DMF .          KB                                      : Drill Measured From
APD .ft        113.0                                   : Above Perm Datum
EKB .ft        112.0                                   : Elev-Kelly Bushing
EDF .ft        111.0                                   : Elev-Drill Floor
EGL .ft        -158.0                                  : Elev-Ground Level (Water Depth)
TDD .ft        7407.0                                  : Total Depth (Driller)
TDL .ft        7388.00                                 : Total Depth (Logger)
SRVC.          SCHLUMBERGER                            : Service Company
LATI.          58 06 30.0 N                            : Latitude
LONG.          03 06 02.0 W                            : Longitude
DATE.          NOV-DEC-1976                            : Logging Date
PROJ.          UKCS                                    : Project
SET .          COMP_WIRE                               : Set
~Curve Information Section
DEPTH.ft                                                  : Depth Curve
CALI.in                                                : Caliper BHC-FDC
CALS.in                                                : Caliper DLL
DRHO.g/cc                                              : Delta Rho
DT.us/ft                                               : Delta-T
GR.gAPI                                                : Gamma Ray ISF
GRD.gAPI                                               : Gamma Ray FDC
GRL.gAPI                                               : Gamma Ray DLL
ILD.Ohmm                                               : Deep Induction Standard Processed Resistivity
LLD.Ohmm                                               : Latero-Log Deep (Resistivity)
LLS.Ohmm                                               : Latero-Log Shallow (Resistivity)
MSFL.Ohmm                                              : Msfl Resistivity
NPHI.pu                                                : Neutron Porosity
RHOB.g/cc                                              : Bulk Density
SFLU.Ohmm                                              : SFL Resistivity (Unaveraged)
SP.mV                                                  : Spontaneous Potential ISF
SPL.mV                                                 : Spontaneous Potential  DLL
~ASCII Log Data Section
# ...
 7191.0000         9.2886         8.4736         0.1122        76.7813        98.7974        78.1869       100.3577         6.9040         8.2551         8.7179         6.8646        22.6725         2.4174         7.6392        64.9560        88.6152     
 7191.5000         9.1209         8.4737         0.0339        75.3711        98.5212        78.1875       100.2688         6.8011         9.1238         9.4737         8.1200        20.3977         2.4727         7.8201        64.8474        88.1879     
 7192.0000         8.8126         8.4473         0.0440        74.9493        96.0783        76.3363        96.6994         6.6772        10.1136        10.2398        15.1135        17.6577         2.5641         8.0449        64.6799        87.6319     
 7192.5000         8.7996         8.3973         0.0769        74.6510        89.5665        72.5269        89.0790         6.4580        11.1499        11.0271        16.1992        17.3466         2.5861         8.1991        64.4099        86.6521     
 7193.0000         8.7996         8.3502         0.0649        75.1979        79.3597        67.1387        80.3504         6.2920        10.9713        10.7884        12.4467        18.1953         2.5444         7.6622        63.7153        85.4743     
 7193.5000         8.8343         8.3245         0.0456        75.4010        74.2324        62.3802        76.8271         6.1280         9.0674         6.8100         8.0898        17.5044         2.5168         7.0418        63.0622        84.1125     
 7194.0000         8.8366         8.3380         0.0395        75.9748        69.1052        57.5803        74.1063         5.9850         7.0775         6.0367         6.7814        14.7366         2.4988         6.4205        62.5868        82.6252     
 7194.5000         8.7105         8.3763         0.0335        75.8264        62.9887        52.0929        64.9953         5.8586         6.2228         6.0792         7.6522        11.7398         2.4800         6.1232        61.9870        81.8448     
 7195.0000         8.6838         8.3916         0.0333        75.4057        54.0999        44.6671        53.1999         5.7638         6.0020         6.0925         7.7032        10.4381         2.4722         5.8988        61.2710        81.9284     
 7195.5000         8.6519         8.4087         0.0342        74.7092        44.0628        36.0923        43.8657         5.6706         5.9990         6.0445         7.6032        10.7332         2.4651         5.8118        60.7147        82.4198     
 7196.0000         8.6495         8.4269         0.0297        73.9813        36.4152        29.1705        37.7487         5.5562         6.0250         6.0096         8.2274        11.5828         2.4371         5.7411        60.4993        83.0474     
 7196.5000         8.6495         8.4532         0.0300        73.4938        35.5264        27.6043        38.3817         5.3981         6.0841         6.0404         8.6823        12.4808         2.3930         5.6934        60.8713        83.4197     
 7197.0000         8.6587         8.4933         0.0513        74.1922        41.1280        30.8310        44.1126         5.2124         6.3295         6.2029         8.6321        13.8513         2.3034         5.6449        61.2696        83.5244     
 7197.5000         8.7830         8.5575         0.1478        76.3269        47.8644        36.3994        52.6843         4.9991         6.6251         6.0447         5.5790        16.3056         2.2405         5.5943        61.7864        83.8308     
 7198.0000         9.4227         8.6742         0.2577        79.8182        55.1502        42.5984        61.8804         4.7813         5.4958         4.6240         2.7425        20.9060         2.1905         5.4555        62.3033        84.4327     
 7198.5000        10.1347         8.8318         0.2733        83.4995        62.8947        48.3363        72.3827         4.5901         4.2074         4.0510         2.4321        27.0332         2.1205         5.0410        62.7243        84.9802     
 7199.0000        10.5448         8.9188         0.2232        86.8594        72.8714        54.8481        83.1163         4.4204         3.9016         3.8510         2.2611        32.0915         2.0287         4.6045        62.9478        85.2058     
 7199.5000        11.1521         8.9056         0.1968        88.4192        82.8321        62.8294        93.5802         4.2790         3.7910         3.8136         1.5457        35.1229         1.9219         4.2557        62.8183        85.3112     
 7200.0000        11.7475         8.8527         0.1891        89.3609        91.7866        70.5409       101.4198         4.1418         3.8047         3.8323         1.7122        36.4295         1.9583         4.0691        62.5987        84.7197     
 7200.5000        11.9921         8.7997         0.1820        88.7832       100.5421        76.7987       107.6614         4.0085         3.9501         4.0071         2.5088        36.1117         2.0135         4.1169        62.3565        84.1491     
 7201.0000        11.1662         8.6700         0.1585        87.6102       104.2551        80.3133       110.4647         3.8736         4.2535         4.3877         4.2756        34.9449         2.0560         4.1216        62.0906        83.8370     
 7201.5000        10.9041         8.5041         0.1118        84.9647       107.0205        81.5123       108.8699         3.7277         4.7664         5.0331         5.5453        32.8030         2.1369         4.1683        61.7350        83.5387     
 7202.0000        10.5342         8.3796         0.0821        82.2430        99.8217        78.3483       101.0502         3.5835         5.2939         5.6047         3.3895        28.7963         2.2634         4.2366        61.3412        82.5550     
 7202.5000         9.6909         8.2659         0.0611        80.4255        92.4122        71.3656        91.2438         3.4723         5.7097         5.7668         3.4675        24.9271         2.3814         4.3117        60.9727        81.1673     
 7203.0000         8.8161         8.1959         0.0561        79.7045        81.3794        63.7491        78.5009         3.4133         5.5240         5.2054         4.5044        21.5372         2.4431         4.4345        60.6009        79.5775     
 7203.5000         8.6057         8.1745         0.0568        79.6100        69.5322        55.4398        63.6006         3.3816         4.4570         4.4163         5.0324        18.3053         2.4391         4.4767        59.5335        78.2471     
 7204.0000         8.5510         8.1955         0.0510        79.6095        57.6083        46.2779        50.6350         3.3439         3.7106         3.8201         5.9639        16.3129         2.4281         4.3080        58.6762        77.6673     
 7204.5000         8.5494         8.2242         0.0408        79.0323        45.5967        35.1372        40.1725         3.2914         3.9165         4.0849         6.7702        14.6760         2.4222         4.2811        58.0221        77.5525     
 7205.0000         8.5494         8.2265         0.0308        78.0714        36.4228        28.0190        32.7427         3.2127         4.3754         4.7182         7.4314        12.9808         2.4094         4.5301        57.6301        77.4292     
 7205.5000         8.5674         8.2271         0.0291        77.2304        34.0812        26.3616        28.8721         3.1241         4.8340         5.2509         7.5617        12.7623         2.3962         4.7987        57.4110        76.9715     
 7206.0000         8.5972         8.2277         0.0399        76.8365        32.7075        24.9840        26.0651         3.1119         5.1991         5.4616         6.5886        14.0846         2.3923         4.9204        57.4120        77.0981     
 7206.5000         8.5807         8.2283         0.0603        77.0103        30.5648        23.6362        26.5530         3.1119         5.1310         5.4518         8.7751        16.1395         2.4050         4.8610        57.5412        78.0432     
