~Version Information Section
VERS.          2.0                                     : CWLS LOG ASCII Standard
WRAP.          NO                                      : One line per depth step
CREA.          05/10/19                                : LAS Creation Date
~Well Information Section
STRT.ft        839.0000                                : Start Depth
STOP.ft        7387.0000                               : Stop Depth
STEP.ft        0.5000                                  : Step
NULL.          -999.5000                               : Null Value
COMP.          MESA PETROLEUM U.K. LTD.                : Company
WELL.          11/30-2                                 : Well
FLD .          EXPLORATION                             : Field
LOC .          NORTH SEA                               : Location
LOC1.          -                                       : Location (UTM)
CTRY.          UK                                      : Country
PROV.          UKCS                                    : Province
UWI .          799                                     : UWI Number
API .          -                                       : API Number
SECT.          -                                       : Section
TOWN.          -                                       : Township
RNGE.          -                                       : Range
PDAT.          MSL                                     : Perm Datum
EPD .ft        0.0                                     : Elevation
LMF .          KB                                      : Log Measured From
DMF .          KB                                      : Drill Measured From
APD .ft        113.0                                   : Above Perm Datum
EKB .ft        112.0                                   : Elev-Kelly Bushing
EDF .ft        111.0                                   : Elev-Drill Floor
EGL .ft        -158.0                                  : Elev-Ground Level (Water Depth)
TDD .ft        7407.0                                  : Total Depth (Driller)
TDL .ft        7388.00                                 : Total Depth (Logger)
SRVC.          SCHLUMBERGER                            : Service Company
LATI.          58 06 30.0 N                            : Latitude
LONG.          03 06 02.0 W                            : Longitude
DATE.          NOV-DEC-1976                            : Logging Date
PROJ.          UKCS                                    : Project
SET .          COMP_WIRE                               : Set
~Curve Information Section
DEPTH.ft                                                  : Depth Curve
CALI.in                                                : Caliper BHC-FDC
CALS.in                                                : Caliper DLL
DRHO.g/cc                                              : Delta Rho
DT.us/ft                                               : Delta-T
GR.gAPI                                                : Gamma Ray ISF
GRD.gAPI                                               : Gamma Ray FDC
GRL.gAPI                                               : Gamma Ray DLL
ILD.Ohmm                                               : Deep Induction Standard Processed Resistivity
LLD.Ohmm                                               : Latero-Log Deep (Resistivity)
LLS.Ohmm                                               : Latero-Log Shallow (Resistivity)
MSFL.Ohmm                                              : Msfl Resistivity
NPHI.pu                                                : Neutron Porosity
RHOB.g/cc                                              : Bulk Density
SFLU.Ohmm                                              : SFL Resistivity (Unaveraged)
SP.mV                                                  : Spontaneous Potential ISF
SPL.mV                                                 : Spontaneous Potential  DLL
~ASCII Log Data Section
# ...
 7351.0000         8.4637         7.2046         0.1475        93.7061       122.6208       118.3387      -999.5000         3.5807         4.4709         4.4144         2.4494        30.9869         2.5188         4.1077        64.9998        90.1511     
 7351.5000         8.4861         7.2771         0.1345        93.9292       121.5549       115.1550      -999.5000         3.5873         4.5303         4.6342         2.6708        31.4000         2.4886         4.1854        65.1250        90.2652     
 7352.0000         8.4630         7.4750         0.1277      -999.5000       118.4850       113.6946      -999.5000         3.6076         4.5594         4.6616         2.5259        31.5808         2.4743         4.2631        65.3211        90.3792     
 7352.5000         8.5233         7.6811         0.1235      -999.5000       117.0143       113.9214      -999.5000         3.6279         4.6000         4.6926         2.2704        32.4320         2.4885         4.3474        65.6425        90.4884     
 7353.0000         8.5865         7.8222         0.1214      -999.5000       117.8072       114.7455      -999.5000         3.6575         4.6328         4.7147         2.4466        33.7439         2.5122         4.4813        65.9473        90.5306     
 7353.5000         8.5997         7.9803         0.1183      -999.5000       118.4971       116.1943      -999.5000         3.6929         4.6274         4.7479         2.8608        35.1422         2.5229         4.5489        66.1261        90.5396     
 7354.0000         8.6369         8.2044         0.1064      -999.5000       117.5185       117.6448      -999.5000         3.7282         4.4592         4.6238         3.3135        35.2161         2.5219         4.4558        66.1076        90.5486     
 7354.5000         8.6497         8.3367         0.0999      -999.5000       116.1261       117.0793      -999.5000         3.6953         4.2885         4.4504         3.4118        34.8108         2.5237         4.3627        65.9102        90.5576     
 7355.0000         8.6497         8.3192         0.1094      -999.5000       114.9941       117.1429      -999.5000         3.6439         4.1299         4.2528         3.2724        35.1028         2.5297         4.2766        65.6596        90.5626     
 7355.5000         8.6497         8.2808         0.1148      -999.5000       116.9612       119.8916      -999.5000         3.5947         3.9710         4.0693         2.9724        35.1292         2.5231         4.1947        65.6273        90.5313     
 7356.0000         8.6497         8.2808         0.1231      -999.5000       120.3901       123.3821      -999.5000         3.5613         3.8350         3.9114         2.6743        34.3595         2.5145         4.1128        65.8256        90.4921     
 7356.5000         8.6497         8.2754         0.1291      -999.5000       120.2025       123.3574      -999.5000         3.5280         3.7369         3.7529         2.5565        33.2355         2.5274         4.0291        66.0760        90.4528     
 7357.0000         8.6497         8.1596         0.1281      -999.5000       119.7127       124.2665      -999.5000         3.4757         3.6409         3.6766         2.6113        33.2673         2.5274         3.9412        66.3264        90.4186     
 7357.5000         8.6497         8.0263         0.1313      -999.5000       118.8444       125.7992      -999.5000         3.2927         3.5514         3.6934         2.4490        33.5485         2.5297         3.8531        66.3658        90.4469     
 7358.0000         8.6804         7.9600         0.1312      -999.5000       119.1358       127.7254      -999.5000         3.1101         3.5301         3.6957         2.2892        34.3319         2.5135         3.8014        66.0905        90.5024     
 7358.5000         8.6997         7.9424         0.1250      -999.5000       119.6480       127.0430      -999.5000         3.0325         3.5300         3.7040         2.4683        35.4792         2.4979         3.7589        65.7500        90.5578     
 7359.0000         8.6684         7.9737         0.1187      -999.5000       120.0012       124.0352      -999.5000         2.9592         3.5179         3.7192         2.6073        36.6881         2.4788         3.7068        65.7324        90.6132     
 7359.5000         8.5862         8.0527         0.1189      -999.5000       116.2780       122.2503      -999.5000         2.8791         3.4938         3.6725         2.1772        36.9435         2.4878         3.6325        65.8576        90.6473     
 7360.0000         8.5174         8.1506         0.1433      -999.5000       116.4223       121.7235      -999.5000         2.7826         3.3617         3.5601         1.8224        35.5841         2.4917         3.5356        65.9286      -999.5000     
 7360.5000         8.5643         8.2516         0.1534      -999.5000       117.4978       119.9586      -999.5000         2.6862         3.1490         3.3455         1.6633        34.7410         2.4563         3.3848        65.8739      -999.5000     
 7361.0000         8.6320         8.4086         0.1296      -999.5000       119.3591       118.3791      -999.5000         2.6319         2.8404         2.9612         1.5623        34.6607         2.4241         3.0531        65.6387      -999.5000     
 7361.5000         8.5842         8.5378         0.1462      -999.5000       120.4298       116.7351      -999.5000         2.6026         2.5005         2.6211         1.4728        35.7408         2.3899         2.8804        65.3181      -999.5000     
 7362.0000         8.5829         8.5719         0.1693      -999.5000       120.8663       114.2010      -999.5000         2.5844         2.5230         2.6403         1.3394        37.0997         2.3442         2.7469        65.1787      -999.5000     
 7362.5000         8.6988         8.5757         0.1746      -999.5000       120.4262      -999.5000      -999.5000         2.6401         2.7072         2.9120         1.4917        36.4969         2.2839         2.6861        65.2906      -999.5000     
 7363.0000         8.8156         8.6321         0.2048      -999.5000       117.6365      -999.5000      -999.5000         2.6958         3.0015         3.0856         1.6900        33.9286         2.2714         2.6923        65.5972      -999.5000     
 7363.5000         8.8497         8.6008         0.2210      -999.5000       113.8793      -999.5000      -999.5000         2.8490         3.1006         3.1711         2.5762        31.8170         2.2708         2.8566        65.9163      -999.5000     
 7364.0000         8.8164         8.5039         0.2134      -999.5000       111.7916      -999.5000      -999.5000         3.1003         3.2140         3.3022         4.0515        29.1574         2.3406         3.6432        66.1103      -999.5000     
 7364.5000         8.8669         8.4067         0.1930      -999.5000       112.2051      -999.5000      -999.5000         3.5621         3.4052      -999.5000         4.4545        28.6252         2.4328         4.3314        66.2355      -999.5000     
 7365.0000         8.9333         8.3059         0.1610      -999.5000       112.3929      -999.5000      -999.5000         3.8474      -999.5000      -999.5000         4.2699        29.5572         2.4713      -999.5000        66.3037      -999.5000     
 7365.5000         8.9497         8.1492         0.1617      -999.5000       112.0009      -999.5000      -999.5000         4.1421      -999.5000      -999.5000         4.1257        30.0686         2.4829      -999.5000        66.3037      -999.5000     
 7366.0000         8.9497         8.0248         0.1629      -999.5000       113.9982      -999.5000      -999.5000         4.4036      -999.5000      -999.5000         4.5417        30.1281         2.4987      -999.5000      -999.5000      -999.5000     
 7366.5000         8.8457         8.0274         0.1367      -999.5000       116.5044      -999.5000      -999.5000         4.5266      -999.5000      -999.5000         5.1918        29.9221         2.4919      -999.5000      -999.5000      -999.5000     
