~Version Information Section
VERS.          2.0                                     : CWLS LOG ASCII Standard
WRAP.          NO                                      : One line per depth step
CREA.          05/10/19                                : LAS Creation Date
~Well Information Section
STRT.ft        839.0000                                : Start Depth
STOP.ft        7387.0000                               : Stop Depth
STEP.ft        0.5000                                  : Step
NULL.          -999.5000                               : Null Value
COMP.          MESA PETROLEUM U.K. LTD.                : Company
WELL.          11/30-2                                 : Well
FLD .          EXPLORATION                             : Field
LOC .          NORTH SEA                               : Location
LOC1.          -                                       : Location (UTM)
CTRY.          UK                                      : Country
PROV.          UKCS                                    : Province
UWI .          799                                     : UWI Number
API .          -                                       : API Number
SECT.          -                                       : Section
TOWN.          -                                       : Township
RNGE.          -                                       : Range
PDAT.          MSL                                     : Perm Datum
EPD .ft        0.0                                     : Elevation
LMF .          KB                                      : Log Measured From
DMF .          KB                                      : Drill Measured From
APD .ft        113.0                                   : Above Perm Datum
EKB .ft        112.0                                   : Elev-Kelly Bushing
EDF .ft        111.0                                   : Elev-Drill Floor
EGL .ft        -158.0                                  : Elev-Ground Level (Water Depth)
TDD .ft        7407.0                                  : Total Depth (Driller)
TDL .ft        7388.00                                 : Total Depth (Logger)
SRVC.          SCHLUMBERGER                            : Service Company
LATI.          58 06 30.0 N                            : Latitude
LONG.          03 06 02.0 W                            : Longitude
DATE.          NOV-DEC-1976                            : Logging Date
PROJ.          UKCS                                    : Project
SET .          COMP_WIRE                               : Set
~Curve Information Section
DEPTH.ft                                                  : Depth Curve
CALI.in                                                : Caliper BHC-FDC
CALS.in                                                : Caliper DLL
DRHO.g/cc                                              : Delta Rho
DT.us/ft                                               : Delta-T
GR.gAPI                                                : Gamma Ray ISF
GRD.gAPI                                               : Gamma Ray FDC
GRL.gAPI                                               : Gamma Ray DLL
ILD.Ohmm                                               : Deep Induction Standard Processed Resistivity
LLD.Ohmm                                               : Latero-Log Deep (Resistivity)
LLS.Ohmm                                               : Latero-Log Shallow (Resistivity)
MSFL.Ohmm                                              : Msfl Resistivity
NPHI.pu                                                : Neutron Porosity
RHOB.g/cc                                              : Bulk Density
SFLU.Ohmm                                              : SFL Resistivity (Unaveraged)
SP.mV                                                  : Spontaneous Potential ISF
SPL.mV                                                 : Spontaneous Potential  DLL
~ASCII Log Data Section
# ...
 6199.0000         9.7759      -999.5000         0.0372        85.7429        89.7019      -999.5000      -999.5000         3.7978      -999.5000      -999.5000      -999.5000      -999.5000         2.4419         4.5423        69.9403      -999.5000     
 6199.5000         9.7093      -999.5000         0.0021        84.1203        93.8110      -999.5000      -999.5000         3.7411      -999.5000      -999.5000      -999.5000      -999.5000         2.4881         4.7596        69.7596      -999.5000     
 6200.0000         9.6999      -999.5000         0.0063        83.2090        96.1723      -999.5000      -999.5000         3.6843      -999.5000      -999.5000      -999.5000        19.8612         2.5003         5.0050        69.6344      -999.5000     
 6200.5000         9.6999      -999.5000         0.0508        83.5353        94.1109        72.5161      -999.5000         3.6456      -999.5000      -999.5000      -999.5000        19.8322         2.5066         5.1487        69.6461      -999.5000     
 6201.0000         9.6999      -999.5000         0.1429        84.3138        93.8400        72.2937      -999.5000         3.6747      -999.5000      -999.5000         7.7312        20.5680         2.5216         5.1370        69.7014        89.9607     
 6201.5000         9.6999         8.8317         0.2273        84.8560        96.3319        72.8692      -999.5000         3.7038         4.9935         5.4739         7.6385        21.5991         2.5651         4.9411        69.7691        89.7891     
 6202.0000         9.7518         8.8319         0.2037        85.2556        98.1889        72.7159      -999.5000         3.7573         4.8352         5.1086         7.1983        21.9373         2.5155         4.7327        69.8250        89.6174     
 6202.5000         9.9307         8.8623         0.1190        85.5048        99.8921        73.0156        91.8201         3.8081         4.6851         4.8713         5.1314        20.9653         2.4289         4.5220        69.8250        89.4457     
 6203.0000         9.7338         8.8960         0.1069        85.5361       101.7376        72.8804        90.5563         3.7348         4.5811         4.6754         4.6206        20.0060         2.3610         4.4990        69.7564        89.3672     
 6203.5000         9.6999         8.9197         0.1487        85.5566       100.8371        72.4457        90.3224         3.6616         4.3538         4.5582         5.2217        20.1641         2.3889         4.4936        69.6314        89.3692     
 6204.0000         9.6957         8.9428         0.2134        85.4349        98.8925        71.6822        91.0959         3.6007         4.3225         4.6033         6.7198        21.4656         2.3815         4.4690        69.5064        89.3712     
 6204.5000         9.6872         8.9534         0.2969        85.8012        96.0240        70.5155        92.2852         3.5449         4.4411         4.7015         6.7315        23.0959         2.3738         4.4194        69.3814        89.3732     
 6205.0000         9.9653         8.9536         0.2960        86.6539        92.7153        70.7250        91.2262         3.4892         4.5454         4.7311         6.3145        24.0389         2.3278         4.3273        69.3250        89.3752     
 6205.5000        10.1361         8.9538         0.2718        87.3016        89.1224        71.8978        90.1613         3.4474         4.3432         4.4719         4.0446        23.5127         2.3309         4.1993        69.3935        89.3772     
 6206.0000        10.6098         8.9411         0.2621        87.2371        86.0987        72.4351        90.7803         3.4603         4.1245         4.3404         2.5988        23.1561         2.3361         4.0921        69.4500        89.3792     
 6206.5000        10.9555         8.9192         0.2603        87.1035        86.1966        72.1610        91.0727         3.4731         3.9820         4.2552         2.8968        23.9529         2.3312         4.1069        69.4500        89.3812     
 6207.0000        10.9565         8.9009         0.2398        86.9030        88.5930        71.6989        90.4860         3.4579         3.8379         4.1650         3.5387        24.1439         2.3012         4.1296        69.3816        89.3701     
 6207.5000        10.4983         8.8740         0.2106        86.7309        89.6990        72.7999        90.5026         3.4308         3.5901         4.0169         4.9865        23.4090         2.2801         4.0968        69.3250        89.3054     
 6208.0000         9.9725         8.8410         0.2186        86.2424        90.0309        72.8530        92.4003         3.3910         3.6561         3.9883         3.2441        23.3282         2.2981         4.0623        69.3250        89.2359     
 6208.5000         9.9630         8.8248         0.2377        86.0479        90.6402        71.4505        93.4077         3.3294         3.8114         4.2144         3.8248        23.9755         2.3143         4.0355        69.3250        89.1717     
 6209.0000        10.1090         8.8172         0.2445        86.1149        91.6176        71.6112        93.7711         3.2759         4.0424         4.4335         5.7778        25.3539         2.3235         4.1623        69.2567        89.1182     
 6209.5000        10.2915         8.8248         0.2522        86.5456        89.8609        71.5722        92.6611         3.2363         4.2911         4.6260         6.7612        26.8226         2.3415         4.1775        69.2683        89.0649     
 6210.0000        10.4464         8.8338         0.2638        87.3591        88.0319        70.4395        88.6861         3.1968         4.1390         4.5649         6.2626        28.2837         2.3732         4.0962        69.3932        89.0116     
 6210.5000        10.8571         8.9264         0.2477        88.3500        86.8284        69.9356        88.2565         3.1716         3.8647         4.0720         4.8407        29.3932         2.3708         3.8480        69.5864        88.8061     
 6211.0000        11.2828         9.0344         0.2273        88.6792        85.5661        70.0497        89.1221         3.1717         3.4656         3.6659         2.9512        28.9765         2.2977         3.7479        69.7000        88.5276     
 6211.5000        11.4650         9.1269         0.2388        88.7308        84.5185        70.8486        90.5137         3.1718         3.1934         3.5480         2.2769        28.2891         2.2664         3.7507        69.6319        88.6006     
 6212.0000        10.9902         9.1304         0.2447        88.5760        85.0572        72.6720        92.2248         3.1719         3.4212         3.4829         2.6628        27.1116         2.2498         3.8217        69.5750        88.9869     
 6212.5000        10.7896         9.1242         0.2556        88.0415        86.2546        72.4200        92.8805         3.1737         3.6203         3.7924         3.9242        24.5240         2.2582         3.9301        69.5750        89.3736     
 6213.0000        10.2916         9.1185         0.2298        87.3703        88.5508        71.8149        91.1598         3.2334         3.7525         3.9699         3.7992        22.6826         2.2828         4.0705        69.5070        89.6081     
 6213.5000        10.0531         9.1247         0.1345        86.7545        89.8667        71.7977        90.6537         3.2964         3.8781         4.0746         2.2956        22.3218         2.2936         4.0722        69.3820        89.6102     
 6214.0000         9.7893         9.1325         0.0485        86.6178        89.5068        72.7128        89.5311         3.4645         4.0442         4.1019         1.6655        22.2634         2.3938         4.1132        69.2570        89.5763     
 6214.5000         9.5704         9.1380         0.0325        85.4944        91.2647        74.4122        88.8992         3.6326         4.2121         4.1733         2.0493        22.1162         2.4785         4.2374        69.2000        89.4544     
