~Version Information Section
VERS.          2.0                                     : CWLS LOG ASCII Standard
WRAP.          NO                                      : One line per depth step
CREA.          04/05/19                                : LAS Creation Date
~Well Information Section
STRT.ft        269.0000                                : Start Depth
STOP.ft        10060.0000                              : Stop Depth
STEP.ft        0.5000                                  : Step
NULL.          -999.2500                               : Null Value
COMP.          BRITOIL                                 : Company
WELL.          11/30a-9                                : Well
FLD .          BEATRICE                                : Field
LOC .          NORTH SEA                               : Location
LOC1.          6439409.78mN 491059.29mE                : Location (UTM) 
CTRY.          UK                                      : Country
PROV.          UKCS                                    : Province
UWI .          7462                                    : UWI Number
API .          -                                       : API Number
SECT.          -                                       : Section
TOWN.          -                                       : Township
RNGE.          -                                       : Range
PDAT.          MSL                                     : Perm Datum
EPD .ft        0.0                                     : Elevation
LMF .          RKB                                     : Log Measured From
DMF .          RKB                                     : Drill Measured From
APD .ft        102.0                                   : Above Perm Datum
EKB .ft        102.0                                   : Elev-Kelly Bushing
EDF .ft        101.0                                   : Elev-Drill Floor
EGL .ft        -173                                    : Elev-Ground Level (Water Depth)
TDD .ft        10060.00                                : Total Depth (Driller)
TDL .ft        10060.00                                : Total Depth (Logger)
SRVC.          SCHLUMBERGER                            : Service Company
LATI.          58 05 40.910 N                          : Latitude
LONG.          03 09 05.942 W                          : Longitude
DATE.          JUL-SEP-1983                            : Logging Date
PROJ.          UKCS                                    : Project
SET .          COMP WIRE                               : Set
~Curve Information Section
DEPTH.ft                                               : Depth Curve
CALI.in                                                : Density Caliper
DRHO.g/cc                                              : Density correction
DT.us/ft                                               : Delta-T
GR.gAPI                                                : Gamma Ray
ILD.ohmm                                               : Deep Induction Standard Processed Resistivity
NPHI.pu                                                : Neutron Porosity
PEF.b/e                                                : Photo-Electric Factor
RHOB.g/cc                                              : Bulk Density
SGR.gAPI                                               : Spectral Gamma Ray
~ASCII Log Data Section
# ...
 9252.5000        12.8243         0.0308        84.3069        76.8438         9.9727        27.2992         2.2905         2.6161        88.3236     
 9253.0000        12.8249         0.0310        85.0831        74.8438        10.1133        28.3566         2.3391         2.6140        91.5625     
 9253.5000        12.8371         0.0298        85.5400        74.1250        10.3359        30.3208         2.4355         2.6145        90.1444     
 9254.0000        12.8835         0.0328        85.7992        75.8095        10.5702        32.2992         2.4241         2.6025        90.5785     
 9254.5000        12.9178         0.0370        85.9481        81.2188        10.6758        32.9623         2.4387         2.5933        85.7692     
 9255.0000        12.9180         0.0388        86.0151        84.4063        10.6289        33.0452         2.4504         2.5866        88.2933     
 9255.5000        12.9180         0.0397        85.7658        83.5625        10.5195        30.8598         2.4479         2.5873        89.9623     
 9256.0000        12.9180         0.0416        85.4418        83.4688        10.5781        29.6659         2.4693         2.5950        90.6178     
 9256.5000        12.9180         0.0422        85.7295        85.1896        10.8088        28.9546         2.4828         2.6060        91.1581     
 9257.0000        12.9180         0.0446        86.8612        85.6250        11.0352        28.1312         2.5038         2.6148        93.8497     
 9257.5000        12.9180         0.0479        88.3069        83.4063        11.1992        27.2944         2.4580         2.6226        95.2562     
 9258.0000        12.9180         0.0511        89.3522        82.8750        11.3047        27.0047         2.2457         2.6192        94.5609     
 9258.5000        12.9180         0.0523        89.8173        84.7830        11.3790        28.8942         2.1489         2.5783        97.9704     
 9259.0000        12.9180         0.0490        90.1105        85.9688        11.4375        30.8895         2.1499         2.5380       103.0694     
 9259.5000        12.9180         0.0462        90.6332        85.0000        11.5234        33.4276         2.2075         2.5143       103.0427     
 9260.0000        12.9180         0.0438        91.4359        85.1250        11.6797        36.2464         2.2317         2.5031       102.3419     
 9260.5000        12.9180         0.0424        92.2717        86.2500        11.9453        39.4706         2.2031         2.5094        99.4562     
 9261.0000        12.9180         0.0424        92.8878        89.3801        12.3167        39.9742         2.1780         2.5163        98.8888     
 9261.5000        12.9180         0.0436        93.4113        90.6250        12.7617        40.2044         2.1667         2.5250        97.8816     
 9262.0000        12.9180         0.0470        93.9185        89.7813        13.1250        38.6521         2.1821         2.5382        99.1920     
 9262.5000        12.9180         0.0522        93.9282        89.0000        13.3086        35.8079         2.2257         2.5347        97.0613     
 9263.0000        12.9180         0.0573        93.2943        90.0359        13.4024        32.6854         2.3215         2.5294        96.9388     
 9263.5000        12.9180         0.0624        92.7148        92.8750        13.4297        31.4801         2.5384         2.5244        96.9840     
 9264.0000        12.9180         0.0533        92.8127        93.4375        13.4336        32.7650         2.8961         2.5014        96.9476     
 9264.5000        12.9180         0.0411        93.6736        92.5625        13.4141        34.2129         3.0536         2.4638        96.7378     
 9265.0000        12.9180         0.0265        94.9889        89.4713        13.4062        35.0782         2.8438         2.4302        99.6195     
 9265.5000        12.9180         0.0281        96.3033        89.3750        13.9688        34.5459         2.6310         2.4269       102.3483     
 9266.0000        12.9180         0.0315        97.4369        90.6875        15.0742        33.3783         2.4803         2.4241       103.0538     
 9266.5000        12.9180         0.0340        98.4489        91.8438        16.5156        34.4117         2.4425         2.4245       104.3964     
 9267.0000        12.9180         0.0357        99.0167        90.5625        17.9297        36.8007         2.4697         2.4284       107.2740     
 9267.5000        12.9180         0.0357        99.0864        88.7200        19.0791        40.1908         2.5219         2.4283       109.9668     
 9268.0000        12.9180         0.0324        98.9291        91.7188        19.9453        43.5568         2.5860         2.4260       112.8002     
 9268.5000        12.9180         0.0185        98.7896        94.3438        20.4844        46.2889         2.6445         2.4102       111.2400     
 9269.0000        12.9180         0.0160        98.7774        95.9375        20.9766        45.5822         2.6816         2.4130       108.9738     
 9269.5000        12.9180         0.0191        98.8423        94.2141        21.2971        44.1554         2.7230         2.4408       103.3137     
 9270.0000        12.9180         0.0253        98.9294        92.0625        21.3984        42.8771         2.7966         2.4880        99.8497     
 9270.5000        12.9180         0.0363        98.9869        91.4375        21.3750        42.5947         3.0959         2.5324        98.3089     
 9271.0000        12.9180         0.0432        98.9191        91.2813        21.6016        41.6194         3.3181         2.5485        97.3807     
 9271.5000        12.9180         0.0427        98.8236        92.6872        21.9139        40.8801         3.0887         2.5254        97.0509     
 9272.0000        12.9180         0.0400        98.7069        93.4688        21.9375        42.0295         2.8420         2.4978        97.0497     
 9272.5000        12.9180         0.0308        98.0035        92.1250        21.8125        43.1725         2.7863         2.4767        96.6327     
 9273.0000        12.9180         0.0197        96.7281        88.0625        22.0859        41.8845         2.8761         2.4722        94.3020     
 9273.5000        12.9180         0.0213        95.9060        84.4063        22.8203        40.8270         2.6474         2.4872        94.4039     
 9274.0000        12.9180         0.0281        96.2387        82.7185        23.3361        46.9888         2.4247         2.4843        97.6458     
 9274.5000        12.9180         0.0246        96.4323        83.7813        23.1484        47.5125         2.3329         2.4664        97.6220     
 9275.0000        12.9180         0.0172        95.6514        83.5000        22.5625        46.9386         2.4014         2.4514        94.1012     
 9275.5000        12.9180         0.0131        94.4507        84.5000        22.4531        46.4143         2.3847         2.4598        90.8884     
 9276.0000        12.9180         0.0199        93.5494        87.1565        22.9145        45.4909         2.3601         2.4706        90.5350     
 9276.5000        12.9180         0.0198        93.0237        89.5938        23.4609        43.9878         2.3651         2.4822        93.9120     
 9277.0000        12.9180         0.0179        92.7575        89.3438        23.8828        41.8997         2.4850         2.4910        96.8646     
 9277.5000        12.9180         0.0160        92.6326        86.2188        23.8906        39.9472         2.6131         2.5003        95.1783     
 9278.0000        12.9180         0.0198        92.5487        84.0026        23.2976        39.1912         2.7043         2.5172        93.4945     
 9278.5000        12.9180         0.0268        92.6261        82.6250        22.5234        41.2436         2.8667         2.5313        92.9945     
